$GNGGA,195405.00,3517.78416497,N,11121.58615743,W,4,17,0.7,1842.423,M,-23.838,M,1.0,0025*5E  04/19/22 14:54:07.410
$GNGGA,195406.00,3517.78416203,N,11121.58615585,W,4,17,0.7,1842.430,M,-23.838,M,1.0,0025*5C  04/19/22 14:54:08.418
$GNGGA,195407.00,3517.78416371,N,11121.58615800,W,4,17,0.7,1842.424,M,-23.838,M,1.0,0025*5C  04/19/22 14:54:09.410
$GNGGA,195408.00,3517.78416437,N,11121.58615677,W,4,17,0.7,1842.426,M,-23.838,M,1.0,0025*5A  04/19/22 14:54:10.418
$GNGGA,195409.00,3517.78416329,N,11121.58615633,W,4,17,0.7,1842.422,M,-23.838,M,1.0,0025*57  04/19/22 14:54:11.410
$GNGGA,195410.00,3517.78416198,N,11121.58615699,W,4,17,0.7,1842.430,M,-23.838,M,1.0,0025*54  04/19/22 14:54:12.418
$GNGGA,195411.00,3517.78416339,N,11121.58615718,W,4,17,0.7,1842.425,M,-23.838,M,1.0,0025*50  04/19/22 14:54:13.410
$GNGGA,195412.00,3517.78416200,N,11121.58615747,W,4,17,0.7,1842.428,M,-23.838,M,1.0,0025*5F  04/19/22 14:54:14.418
$GNGGA,195413.00,3517.78416161,N,11121.58615723,W,4,17,0.7,1842.427,M,-23.838,M,1.0,0025*57  04/19/22 14:54:15.409
$GNGGA,195414.00,3517.78416298,N,11121.58615767,W,4,17,0.7,1842.430,M,-23.838,M,1.0,0025*53  04/19/22 14:54:16.417
$GNGGA,195415.00,3517.78416125,N,11121.58615728,W,4,17,0.7,1842.428,M,-23.838,M,1.0,0025*55  04/19/22 14:54:17.409
$GNGGA,195416.00,3517.78416285,N,11121.58615651,W,4,17,0.7,1842.430,M,-23.838,M,1.0,0025*59  04/19/22 14:54:18.417
$GNGGA,195417.00,3517.78416327,N,11121.58615767,W,4,17,0.7,1842.429,M,-23.838,M,1.0,0025*5D  04/19/22 14:54:19.408
$GNGGA,195418.00,3517.78416292,N,11121.58615934,W,4,17,0.7,1842.432,M,-23.838,M,1.0,0025*5F  04/19/22 14:54:20.416
$GNGGA,195419.00,3517.78416323,N,11121.58615760,W,4,17,0.7,1842.426,M,-23.838,M,1.0,0025*5F  04/19/22 14:54:21.408
$GNGGA,195420.00,3517.78416098,N,11121.58615650,W,4,17,0.7,1842.426,M,-23.838,M,1.0,0025*54  04/19/22 14:54:22.417
$GNGGA,195421.00,3517.78416359,N,11121.58615702,W,4,17,0.7,1842.421,M,-23.838,M,1.0,0025*5A  04/19/22 14:54:23.408
$GNGGA,195422.00,3517.78416124,N,11121.58615833,W,4,17,0.7,1842.428,M,-23.838,M,1.0,0025*55  04/19/22 14:54:24.416
$GNGGA,195423.00,3517.78416411,N,11121.58615592,W,4,17,0.7,1842.424,M,-23.838,M,1.0,0025*5D  04/19/22 14:54:25.423
$GNGGA,195424.00,3517.78416348,N,11121.58615973,W,4,17,0.7,1842.426,M,-23.838,M,1.0,0025*50  04/19/22 14:54:26.416
$GNGGA,195425.00,3517.78416323,N,11121.58615766,W,4,17,0.7,1842.429,M,-23.838,M,1.0,0025*59  04/19/22 14:54:27.424
$GNGGA,195426.00,3517.78416170,N,11121.58615896,W,4,17,0.7,1842.434,M,-23.838,M,1.0,0025*52  04/19/22 14:54:28.416
$GNGGA,195427.00,3517.78416133,N,11121.58615692,W,4,17,0.7,1842.425,M,-23.838,M,1.0,0025*5E  04/19/22 14:54:29.424
$GNGGA,195428.00,3517.78416367,N,11121.58615727,W,4,17,0.7,1842.431,M,-23.838,M,1.0,0025*58  04/19/22 14:54:30.415
$GNGGA,195429.00,3517.78416277,N,11121.58615676,W,4,17,0.7,1842.426,M,-23.838,M,1.0,0025*5A  04/19/22 14:54:31.423
$GNGGA,195430.00,3517.78416368,N,11121.58615639,W,4,17,0.7,1842.430,M,-23.838,M,1.0,0025*51  04/19/22 14:54:32.415
$GNGGA,195431.00,3517.78416377,N,11121.58615841,W,4,17,0.7,1842.423,M,-23.838,M,1.0,0025*5D  04/19/22 14:54:33.423
$GNGGA,195432.00,3517.78416320,N,11121.58615478,W,4,17,0.7,1842.427,M,-23.838,M,1.0,0025*5E  04/19/22 14:54:34.415
$GNGGA,195433.00,3517.78416325,N,11121.58615676,W,4,17,0.7,1842.425,M,-23.838,M,1.0,0025*54  04/19/22 14:54:35.422
$GNGGA,195434.00,3517.78416041,N,11121.58615813,W,4,17,0.7,1842.429,M,-23.838,M,1.0,0025*53  04/19/22 14:54:36.415
$GNGGA,195435.00,3517.78416188,N,11121.58615806,W,4,17,0.7,1842.431,M,-23.838,M,1.0,0025*5B  04/19/22 14:54:37.422
$GNGGA,195436.00,3517.78416297,N,11121.58615746,W,4,17,0.7,1842.430,M,-23.838,M,1.0,0025*5F  04/19/22 14:54:38.415
$GNGGA,195437.00,3517.78416346,N,11121.58615436,W,4,17,0.7,1842.430,M,-23.838,M,1.0,0025*57  04/19/22 14:54:39.422
$GNGGA,195438.00,3517.78416186,N,11121.58615746,W,4,17,0.7,1842.423,M,-23.838,M,1.0,0025*50  04/19/22 14:54:40.414
$GNGGA,195439.00,3517.78416332,N,11121.58615608,W,4,17,0.7,1842.430,M,-23.838,M,1.0,0025*55  04/19/22 14:54:41.422
$GNGGA,195440.00,3517.78416322,N,11121.58615620,W,4,17,0.7,1842.428,M,-23.838,M,1.0,0025*59  04/19/22 14:54:42.414
$GNGGA,195441.00,3517.78416329,N,11121.58615663,W,4,17,0.7,1842.425,M,-23.838,M,1.0,0025*59  04/19/22 14:54:43.422
$GNGGA,195442.00,3517.78416206,N,11121.58615575,W,4,17,0.7,1842.433,M,-23.838,M,1.0,0025*55  04/19/22 14:54:44.430
$GNGGA,195443.00,3517.78416414,N,11121.58615585,W,4,17,0.7,1842.424,M,-23.838,M,1.0,0025*58  04/19/22 14:54:45.421
$GNGGA,195444.00,3517.78416315,N,11121.58615689,W,4,17,0.7,1842.427,M,-23.838,M,1.0,0025*55  04/19/22 14:54:46.413
$GNGGA,195445.00,3517.78416167,N,11121.58615759,W,4,17,0.7,1842.426,M,-23.838,M,1.0,0025*5E  04/19/22 14:54:47.421
$GNGGA,195446.00,3517.78416288,N,11121.58615619,W,4,17,0.7,1842.427,M,-23.838,M,1.0,0025*5B  04/19/22 14:54:48.412
$GNGGA,195447.00,3517.78416296,N,11121.58615645,W,4,17,0.7,1842.427,M,-23.838,M,1.0,0025*5C  04/19/22 14:54:49.421
$GNGGA,195448.00,3517.78416273,N,11121.58615622,W,4,17,0.7,1842.424,M,-23.838,M,1.0,0025*5A  04/19/22 14:54:50.412
$GNGGA,195449.00,3517.78416231,N,11121.58615649,W,4,17,0.7,1842.429,M,-23.838,M,1.0,0025*5D  04/19/22 14:54:51.420
$GNGGA,195450.00,3517.78416326,N,11121.58615652,W,4,17,0.7,1842.426,M,-23.838,M,1.0,0025*57  04/19/22 14:54:52.412
$GNGGA,195451.00,3517.78416227,N,11121.58615623,W,4,17,0.7,1842.424,M,-23.838,M,1.0,0025*52  04/19/22 14:54:53.420
$GNGGA,195452.00,3517.78416387,N,11121.58615610,W,4,17,0.7,1842.424,M,-23.838,M,1.0,0025*5A  04/19/22 14:54:54.428
$GNGGA,195453.00,3517.78416313,N,11121.58615619,W,4,17,0.7,1842.424,M,-23.838,M,1.0,0025*5F  04/19/22 14:54:55.420
$GNGGA,195454.00,3517.78416152,N,11121.58615621,W,4,17,0.7,1842.427,M,-23.838,M,1.0,0025*57  04/19/22 14:54:56.411
$GNGGA,195455.00,3517.78416242,N,11121.58615392,W,4,17,0.7,1842.431,M,-23.838,M,1.0,0025*5E  04/19/22 14:54:57.420
$GNGGA,195456.00,3517.78416260,N,11121.58615610,W,4,17,0.7,1842.427,M,-23.838,M,1.0,0025*55  04/19/22 14:54:58.412
$GNGGA,195457.00,3517.78416249,N,11121.58615565,W,4,17,0.7,1842.431,M,-23.838,M,1.0,0025*59  04/19/22 14:54:59.420
$GNGGA,195458.00,3517.78416238,N,11121.58615471,W,4,17,0.7,1842.424,M,-23.838,M,1.0,0025*50  04/19/22 14:55:00.411
$GNGGA,195459.00,3517.78416066,N,11121.58615588,W,4,17,0.7,1842.429,M,-23.838,M,1.0,0025*52  04/19/22 14:55:01.419
$GNGGA,195500.00,3517.78416215,N,11121.58615629,W,4,17,0.7,1842.422,M,-23.838,M,1.0,0025*5A  04/19/22 14:55:02.411
$GNGGA,195501.00,3517.78416333,N,11121.58615623,W,4,17,0.7,1842.426,M,-23.838,M,1.0,0025*50  04/19/22 14:55:03.419
$GNGGA,195502.00,3517.78416197,N,11121.58615671,W,4,17,0.7,1842.422,M,-23.838,M,1.0,0025*5C  04/19/22 14:55:04.426
$GNGGA,195503.00,3517.78416199,N,11121.58615629,W,4,17,0.7,1842.426,M,-23.838,M,1.0,0025*5A  04/19/22 14:55:05.419
$GNGGA,195504.00,3517.78416288,N,11121.58615733,W,4,17,0.7,1842.424,M,-23.838,M,1.0,0025*56  04/19/22 14:55:06.411
$GNGGA,195505.00,3517.78416124,N,11121.58615511,W,4,17,0.7,1842.428,M,-23.838,M,1.0,0025*5C  04/19/22 14:55:07.418
$GNGGA,195506.00,3517.78416308,N,11121.58615515,W,4,17,0.7,1842.423,M,-23.838,M,1.0,0025*5C  04/19/22 14:55:08.410
$GNGGA,195507.00,3517.78416293,N,11121.58615501,W,4,17,0.7,1842.428,M,-23.838,M,1.0,0025*50  04/19/22 14:55:09.418
$GNGGA,195508.00,3517.78416106,N,11121.58615565,W,4,17,0.7,1842.430,M,-23.838,M,1.0,0025*5B  04/19/22 14:55:10.410
$GNGGA,195509.00,3517.78416191,N,11121.58615744,W,4,17,0.7,1842.430,M,-23.838,M,1.0,0025*55  04/19/22 14:55:11.418
$GNGGA,195510.00,3517.78416341,N,11121.58615638,W,4,17,0.7,1842.428,M,-23.838,M,1.0,0025*51  04/19/22 14:55:12.410
