$GNGGA,192603.00,3517.79327808,N,11121.57804112,W,4,18,0.7,1842.006,M,-23.838,M,1.0,0025*5C  04/19/22 14:26:05.427
$GNGGA,192604.00,3517.79327757,N,11121.57803978,W,4,18,0.7,1842.002,M,-23.838,M,1.0,0025*59  04/19/22 14:26:06.436
$GNGGA,192605.00,3517.79327789,N,11121.57804245,W,4,18,0.7,1842.002,M,-23.838,M,1.0,0025*59  04/19/22 14:26:07.428
$GNGGA,192606.00,3517.79327819,N,11121.57804111,W,4,18,0.7,1842.002,M,-23.838,M,1.0,0025*5E  04/19/22 14:26:08.435
$GNGGA,192607.00,3517.79327754,N,11121.57804167,W,4,18,0.7,1842.007,M,-23.838,M,1.0,0025*5D  04/19/22 14:26:09.427
$GNGGA,192608.00,3517.79327864,N,11121.57804122,W,4,18,0.7,1842.003,M,-23.838,M,1.0,0025*5B  04/19/22 14:26:10.435
$GNGGA,192609.00,3517.79327823,N,11121.57804212,W,4,18,0.7,1842.002,M,-23.838,M,1.0,0025*58  04/19/22 14:26:11.427
$GNGGA,192610.00,3517.79327816,N,11121.57804050,W,4,18,0.7,1842.005,M,-23.838,M,1.0,0025*55  04/19/22 14:26:12.435
$GNGGA,192611.00,3517.79327734,N,11121.57804087,W,4,18,0.7,1842.009,M,-23.838,M,1.0,0025*5D  04/19/22 14:26:13.426
$GNGGA,192612.00,3517.79327756,N,11121.57804030,W,4,18,0.7,1842.002,M,-23.838,M,1.0,0025*5D  04/19/22 14:26:14.435
$GNGGA,192613.00,3517.79327718,N,11121.57804158,W,4,18,0.7,1842.004,M,-23.838,M,1.0,0025*5F  04/19/22 14:26:15.426
$GNGGA,192614.00,3517.79327898,N,11121.57803927,W,4,18,0.7,1842.007,M,-23.838,M,1.0,0025*5B  04/19/22 14:26:16.434
$GNGGA,192615.00,3517.79327754,N,11121.57803919,W,4,18,0.7,1842.000,M,-23.838,M,1.0,0025*5F  04/19/22 14:26:17.426
$GNGGA,192616.00,3517.79328016,N,11121.57803928,W,4,18,0.7,1842.010,M,-23.838,M,1.0,0025*51  04/19/22 14:26:18.434
$GNGGA,192617.00,3517.79327905,N,11121.57804140,W,4,18,0.7,1842.002,M,-23.838,M,1.0,0025*56  04/19/22 14:26:19.426
$GNGGA,192618.00,3517.79327739,N,11121.57804053,W,4,18,0.7,1842.004,M,-23.838,M,1.0,0025*5D  04/19/22 14:26:20.434
$GNGGA,192619.00,3517.79327879,N,11121.57804143,W,4,18,0.7,1842.004,M,-23.838,M,1.0,0025*57  04/19/22 14:26:21.426
$GNGGA,192620.00,3517.79327905,N,11121.57804074,W,4,18,0.7,1842.001,M,-23.838,M,1.0,0025*57  04/19/22 14:26:22.433
$GNGGA,192621.00,3517.79327661,N,11121.57803873,W,4,18,0.7,1842.002,M,-23.838,M,1.0,0025*50  04/19/22 14:26:23.425
$GNGGA,192622.00,3517.79327844,N,11121.57804037,W,4,18,0.7,1842.000,M,-23.838,M,1.0,0025*57  04/19/22 14:26:24.433
$GNGGA,192623.00,3517.79327850,N,11121.57803917,W,4,18,0.7,1842.002,M,-23.838,M,1.0,0025*5D  04/19/22 14:26:25.424
$GNGGA,192624.00,3517.79328090,N,11121.57803995,W,4,18,0.7,1842.000,M,-23.838,M,1.0,0025*59  04/19/22 14:26:26.433
$GNGGA,192625.00,3517.79327899,N,11121.57803881,W,4,18,0.7,1842.003,M,-23.838,M,1.0,0025*51  04/19/22 14:26:27.424
$GNGGA,192626.00,3517.79327790,N,11121.57804155,W,4,18,0.7,1842.004,M,-23.838,M,1.0,0025*54  04/19/22 14:26:28.433
$GNGGA,192627.00,3517.79327817,N,11121.57804098,W,4,18,0.7,1842.005,M,-23.838,M,1.0,0025*54  04/19/22 14:26:29.425
$GNGGA,192628.00,3517.79327808,N,11121.57803962,W,4,18,0.7,1842.003,M,-23.838,M,1.0,0025*58  04/19/22 14:26:30.432
$GNGGA,192629.00,3517.79327916,N,11121.57804039,W,4,18,0.7,1842.006,M,-23.838,M,1.0,0025*52  04/19/22 14:26:31.424
$GNGGA,192630.00,3517.79327745,N,11121.57803984,W,4,18,0.7,1842.002,M,-23.838,M,1.0,0025*5E  04/19/22 14:26:32.432
$GNGGA,192631.00,3517.79327756,N,11121.57804270,W,4,18,0.7,1842.001,M,-23.838,M,1.0,0025*59  04/19/22 14:26:33.424
$GNGGA,192632.00,3517.79327775,N,11121.57804184,W,4,18,0.7,1842.008,M,-23.838,M,1.0,0025*5A  04/19/22 14:26:34.431
$GNGGA,192633.00,3517.79327883,N,11121.57804144,W,4,18,0.7,1842.006,M,-23.838,M,1.0,0025*5F  04/19/22 14:26:35.423
$GNGGA,192634.00,3517.79327811,N,11121.57804043,W,4,18,0.7,1842.006,M,-23.838,M,1.0,0025*55  04/19/22 14:26:36.431
$GNGGA,192635.00,3517.79327852,N,11121.57804078,W,4,18,0.7,1842.004,M,-23.838,M,1.0,0025*59  04/19/22 14:26:37.423
$GNGGA,192636.00,3517.79327886,N,11121.57804186,W,4,18,0.7,1842.000,M,-23.838,M,1.0,0025*57  04/19/22 14:26:38.431
$GNGGA,192637.00,3517.79327879,N,11121.57803820,W,4,18,0.7,1842.008,M,-23.838,M,1.0,0025*5C  04/19/22 14:26:39.423
$GNGGA,192638.00,3517.79327915,N,11121.57803986,W,4,18,0.7,1842.002,M,-23.838,M,1.0,0025*5F  04/19/22 14:26:40.430
$GNGGA,192639.00,3517.79327899,N,11121.57804087,W,4,18,0.7,1842.002,M,-23.838,M,1.0,0025*54  04/19/22 14:26:41.422
$GNGGA,192640.00,3517.79328129,N,11121.57804135,W,4,18,0.7,1841.996,M,-23.838,M,1.0,0025*58  04/19/22 14:26:42.431
$GNGGA,192641.00,3517.79327920,N,11121.57804224,W,4,18,0.7,1842.006,M,-23.838,M,1.0,0025*57  04/19/22 14:26:43.423
$GNGGA,192642.00,3517.79327829,N,11121.57804008,W,4,18,0.7,1841.997,M,-23.838,M,1.0,0025*52  04/19/22 14:26:44.430
$GNGGA,192643.00,3517.79327869,N,11121.57804045,W,4,18,0.7,1841.998,M,-23.838,M,1.0,0025*51  04/19/22 14:26:45.422
$GNGGA,192644.00,3517.79327841,N,11121.57804093,W,4,18,0.7,1842.005,M,-23.838,M,1.0,0025*59  04/19/22 14:26:46.430
$GNGGA,192645.00,3517.79327891,N,11121.57804105,W,4,18,0.7,1841.999,M,-23.838,M,1.0,0025*54  04/19/22 14:26:47.437
$GNGGA,192646.00,3517.79327899,N,11121.57804162,W,4,18,0.7,1841.999,M,-23.838,M,1.0,0025*5E  04/19/22 14:26:48.429
$GNGGA,192647.00,3517.79327927,N,11121.57804043,W,4,18,0.7,1842.004,M,-23.838,M,1.0,0025*57  04/19/22 14:26:49.438
$GNGGA,192648.00,3517.79327851,N,11121.57804052,W,4,18,0.7,1842.003,M,-23.838,M,1.0,0025*5F  04/19/22 14:26:50.429
$GNGGA,192649.00,3517.79327892,N,11121.57804026,W,4,18,0.7,1841.999,M,-23.838,M,1.0,0025*5B  04/19/22 14:26:51.437
$GNGGA,192650.00,3517.79327792,N,11121.57804104,W,4,18,0.7,1842.004,M,-23.838,M,1.0,0025*53  04/19/22 14:26:52.429
$GNGGA,192651.00,3517.79328022,N,11121.57804082,W,4,18,0.7,1841.999,M,-23.838,M,1.0,0025*50  04/19/22 14:26:53.437
$GNGGA,192652.00,3517.79327939,N,11121.57804186,W,4,18,0.7,1842.004,M,-23.838,M,1.0,0025*54  04/19/22 14:26:54.429
$GNGGA,192653.00,3517.79327827,N,11121.57804041,W,4,18,0.7,1842.000,M,-23.838,M,1.0,0025*55  04/19/22 14:26:55.436
$GNGGA,192654.00,3517.79327891,N,11121.57804070,W,4,18,0.7,1842.003,M,-23.838,M,1.0,0025*5E  04/19/22 14:26:56.428
$GNGGA,192655.00,3517.79327924,N,11121.57803965,W,4,18,0.7,1842.004,M,-23.838,M,1.0,0025*5D  04/19/22 14:26:57.436
$GNGGA,192656.00,3517.79327863,N,11121.57804097,W,4,18,0.7,1842.000,M,-23.838,M,1.0,0025*5B  04/19/22 14:26:58.429
$GNGGA,192657.00,3517.79327981,N,11121.57804180,W,4,18,0.7,1842.006,M,-23.838,M,1.0,0025*56  04/19/22 14:26:59.436
$GNGGA,192658.00,3517.79327901,N,11121.57804138,W,4,18,0.7,1842.004,M,-23.838,M,1.0,0025*50  04/19/22 14:27:00.428
$GNGGA,192659.00,3517.79327936,N,11121.57804163,W,4,18,0.7,1841.999,M,-23.838,M,1.0,0025*55  04/19/22 14:27:01.436
$GNGGA,192700.00,3517.79327911,N,11121.57803943,W,4,18,0.7,1841.999,M,-23.838,M,1.0,0025*50  04/19/22 14:27:02.428
$GNGGA,192701.00,3517.79327898,N,11121.57804037,W,4,18,0.7,1842.001,M,-23.838,M,1.0,0025*57  04/19/22 14:27:03.435
$GNGGA,192702.00,3517.79327927,N,11121.57804054,W,4,18,0.7,1842.011,M,-23.838,M,1.0,0025*55  04/19/22 14:27:04.443
$GNGGA,192703.00,3517.79327810,N,11121.57803874,W,4,18,0.7,1842.004,M,-23.838,M,1.0,0025*58  04/19/22 14:27:05.436
$GNGGA,192704.00,3517.79328073,N,11121.57804056,W,4,18,0.7,1841.997,M,-23.838,M,1.0,0025*52  04/19/22 14:27:06.427
$GNGGA,192705.00,3517.79327982,N,11121.57803947,W,4,18,0.7,1842.002,M,-23.838,M,1.0,0025*53  04/19/22 14:27:07.435
$GNGGA,192706.00,3517.79327845,N,11121.57803884,W,4,18,0.7,1841.999,M,-23.838,M,1.0,0025*5C  04/19/22 14:27:08.427
$GNGGA,192707.00,3517.79327862,N,11121.57803963,W,4,18,0.7,1842.005,M,-23.838,M,1.0,0025*5F  04/19/22 14:27:09.435
$GNGGA,192713.00,3517.79327923,N,11121.57804103,W,4,18,0.7,1842.003,M,-23.838,M,1.0,0025*51  04/19/22 14:27:15.434
$GNGGA,192714.00,3517.79327881,N,11121.57804083,W,4,18,0.7,1842.002,M,-23.838,M,1.0,0025*57  04/19/22 14:27:16.426
$GNGGA,192715.00,3517.79327825,N,11121.57803962,W,4,18,0.7,1842.005,M,-23.838,M,1.0,0025*5E  04/19/22 14:27:17.434
$GNGGA,192716.00,3517.79327883,N,11121.57804164,W,4,18,0.7,1842.000,M,-23.838,M,1.0,0025*5D  04/19/22 14:27:18.425
$GNGGA,192717.00,3517.79327942,N,11121.57804072,W,4,18,0.7,1841.999,M,-23.838,M,1.0,0025*5C  04/19/22 14:27:19.434
$GNGGA,192718.00,3517.79327847,N,11121.57804154,W,4,18,0.7,1841.998,M,-23.838,M,1.0,0025*53  04/19/22 14:27:20.426
$GNGGA,192719.00,3517.79327750,N,11121.57804137,W,4,18,0.7,1842.006,M,-23.838,M,1.0,0025*53  04/19/22 14:27:21.433
$GNGGA,192720.00,3517.79327824,N,11121.57803979,W,4,18,0.7,1842.000,M,-23.838,M,1.0,0025*56  04/19/22 14:27:22.425
$GNGGA,192721.00,3517.79327882,N,11121.57804277,W,4,18,0.7,1842.001,M,-23.838,M,1.0,0025*58  04/19/22 14:27:23.433
$GNGGA,192806.00,3517.79327804,N,11121.57803922,W,4,18,0.7,1842.002,M,-23.838,M,1.0,0025*53  04/19/22 14:28:08.435
$GNGGA,192807.00,3517.79327906,N,11121.57804108,W,4,18,0.7,1842.009,M,-23.838,M,1.0,0025*5D  04/19/22 14:28:09.427
$GNGGA,192808.00,3517.79327907,N,11121.57804030,W,4,18,0.7,1842.005,M,-23.838,M,1.0,0025*55  04/19/22 14:28:10.435
$GNGGA,192809.00,3517.79327782,N,11121.57803973,W,4,18,0.7,1842.008,M,-23.838,M,1.0,0025*53  04/19/22 14:28:11.426
$GNGGA,192810.00,3517.79327905,N,11121.57803914,W,4,18,0.7,1842.004,M,-23.838,M,1.0,0025*57  04/19/22 14:28:12.434
$GNGGA,192811.00,3517.79327920,N,11121.57804050,W,4,18,0.7,1842.007,M,-23.838,M,1.0,0025*5C  04/19/22 14:28:13.426
$GNGGA,192812.00,3517.79327772,N,11121.57804042,W,4,18,0.7,1842.007,M,-23.838,M,1.0,0025*55  04/19/22 14:28:14.434
$GNGGA,192813.00,3517.79327832,N,11121.57804006,W,4,18,0.7,1842.006,M,-23.838,M,1.0,0025*5E  04/19/22 14:28:15.426
$GNGGA,192814.00,3517.79327841,N,11121.57804059,W,4,18,0.7,1842.007,M,-23.838,M,1.0,0025*56  04/19/22 14:28:16.434
$GNGGA,192815.00,3517.79327775,N,11121.57803971,W,4,18,0.7,1842.006,M,-23.838,M,1.0,0025*5A  04/19/22 14:28:17.426
$GNGGA,192816.00,3517.79327819,N,11121.57804097,W,4,18,0.7,1842.008,M,-23.838,M,1.0,0025*54  04/19/22 14:28:18.433
$GNGGA,192817.00,3517.79327891,N,11121.57803978,W,4,18,0.7,1842.003,M,-23.838,M,1.0,0025*51  04/19/22 14:28:19.426
$GNGGA,192818.00,3517.79327761,N,11121.57804108,W,4,18,0.7,1842.011,M,-23.838,M,1.0,0025*55  04/19/22 14:28:20.434
$GNGGA,192819.00,3517.79327940,N,11121.57803994,W,4,18,0.7,1842.003,M,-23.838,M,1.0,0025*50  04/19/22 14:28:21.425
$GNGGA,192820.00,3517.79327876,N,11121.57803870,W,4,18,0.7,1842.000,M,-23.838,M,1.0,0025*56  04/19/22 14:28:22.433
$GNGGA,192821.00,3517.79327925,N,11121.57804101,W,4,18,0.7,1842.007,M,-23.838,M,1.0,0025*5F  04/19/22 14:28:23.425
$GNGGA,192822.00,3517.79327865,N,11121.57803897,W,4,18,0.7,1842.003,M,-23.838,M,1.0,0025*5C  04/19/22 14:28:24.433
$GNGGA,192823.00,3517.79327878,N,11121.57804122,W,4,18,0.7,1842.006,M,-23.838,M,1.0,0025*54  04/19/22 14:28:25.425
$GNGGA,192824.00,3517.79327960,N,11121.57804077,W,4,18,0.7,1842.011,M,-23.838,M,1.0,0025*5C  04/19/22 14:28:26.432
$GNGGA,192825.00,3517.79327956,N,11121.57804127,W,4,18,0.7,1842.002,M,-23.838,M,1.0,0025*5E  04/19/22 14:28:27.425
$GNGGA,192826.00,3517.79327947,N,11121.57804212,W,4,18,0.7,1842.003,M,-23.838,M,1.0,0025*59  04/19/22 14:28:28.432
$GNGGA,192827.00,3517.79327815,N,11121.57804053,W,4,18,0.7,1842.006,M,-23.838,M,1.0,0025*5C  04/19/22 14:28:29.425
$GNGGA,192828.00,3517.79327824,N,11121.57804165,W,4,18,0.7,1842.008,M,-23.838,M,1.0,0025*5B  04/19/22 14:28:30.432
$GNGGA,192829.00,3517.79327947,N,11121.57803971,W,4,18,0.7,1842.003,M,-23.838,M,1.0,0025*5F  04/19/22 14:28:31.424
$GNGGA,192830.00,3517.79327941,N,11121.57804134,W,4,18,0.7,1842.003,M,-23.838,M,1.0,0025*5F  04/19/22 14:28:32.432
$GNGGA,192831.00,3517.79328076,N,11121.57803971,W,4,18,0.7,1842.010,M,-23.838,M,1.0,0025*50  04/19/22 14:28:33.424
$GNGGA,192832.00,3517.79327832,N,11121.57803781,W,4,18,0.7,1842.003,M,-23.838,M,1.0,0025*57  04/19/22 14:28:34.431
$GNGGA,192833.00,3517.79327895,N,11121.57803831,W,4,18,0.7,1842.004,M,-23.838,M,1.0,0025*58  04/19/22 14:28:35.423
$GNGGA,192834.00,3517.79328010,N,11121.57804109,W,4,18,0.7,1842.000,M,-23.838,M,1.0,0025*54  04/19/22 14:28:36.431
$GNGGA,192835.00,3517.79327950,N,11121.57803993,W,4,18,0.7,1842.005,M,-23.838,M,1.0,0025*5E  04/19/22 14:28:37.423
$GNGGA,192836.00,3517.79327911,N,11121.57803960,W,4,18,0.7,1842.007,M,-23.838,M,1.0,0025*56  04/19/22 14:28:38.431
$GNGGA,192837.00,3517.79327900,N,11121.57804163,W,4,18,0.7,1841.999,M,-23.838,M,1.0,0025*56  04/19/22 14:28:39.424
$GNGGA,192838.00,3517.79327810,N,11121.57804204,W,4,18,0.7,1842.003,M,-23.838,M,1.0,0025*52  04/19/22 14:28:40.432
$GNGGA,192839.00,3517.79327968,N,11121.57803985,W,4,18,0.7,1842.001,M,-23.838,M,1.0,0025*5A  04/19/22 14:28:41.423
$GNGGA,192840.00,3517.79327813,N,11121.57803891,W,4,18,0.7,1842.008,M,-23.838,M,1.0,0025*54  04/19/22 14:28:42.430
$GNGGA,192841.00,3517.79327987,N,11121.57803967,W,4,18,0.7,1842.007,M,-23.838,M,1.0,0025*5E  04/19/22 14:28:43.423
$GNGGA,192842.00,3517.79327926,N,11121.57803966,W,4,18,0.7,1842.006,M,-23.838,M,1.0,0025*56  04/19/22 14:28:44.431
$GNGGA,192843.00,3517.79327895,N,11121.57803930,W,4,18,0.7,1842.004,M,-23.838,M,1.0,0025*5F  04/19/22 14:28:45.422
$GNGGA,192844.00,3517.79327894,N,11121.57803910,W,4,18,0.7,1842.004,M,-23.838,M,1.0,0025*5B  04/19/22 14:28:46.430
$GNGGA,192845.00,3517.79327927,N,11121.57803968,W,4,18,0.7,1842.008,M,-23.838,M,1.0,0025*50  04/19/22 14:28:47.422
$GNGGA,192846.00,3517.79327946,N,11121.57804035,W,4,18,0.7,1842.006,M,-23.838,M,1.0,0025*5C  04/19/22 14:28:48.430
$GNGGA,192847.00,3517.79327862,N,11121.57804106,W,4,18,0.7,1842.004,M,-23.838,M,1.0,0025*59  04/19/22 14:28:49.422
$GNGGA,192848.00,3517.79327891,N,11121.57803906,W,4,18,0.7,1842.009,M,-23.838,M,1.0,0025*58  04/19/22 14:28:50.429
$GNGGA,192849.00,3517.79327925,N,11121.57803844,W,4,18,0.7,1842.008,M,-23.838,M,1.0,0025*51  04/19/22 14:28:51.422
$GNGGA,192850.00,3517.79327866,N,11121.57803959,W,4,18,0.7,1842.002,M,-23.838,M,1.0,0025*58  04/19/22 14:28:52.429
$GNGGA,192851.00,3517.79327900,N,11121.57803934,W,4,18,0.7,1842.002,M,-23.838,M,1.0,0025*53  04/19/22 14:28:53.421
$GNGGA,192852.00,3517.79327807,N,11121.57804120,W,4,18,0.7,1842.005,M,-23.838,M,1.0,0025*5B  04/19/22 14:28:54.429
$GNGGA,192853.00,3517.79328017,N,11121.57803948,W,4,18,0.7,1842.008,M,-23.838,M,1.0,0025*50  04/19/22 14:28:55.437
$GNGGA,192854.00,3517.79327884,N,11121.57803950,W,4,18,0.7,1842.005,M,-23.838,M,1.0,0025*5E  04/19/22 14:28:56.429
$GNGGA,192855.00,3517.79328038,N,11121.57804013,W,4,18,0.7,1842.008,M,-23.838,M,1.0,0025*5B  04/19/22 14:28:57.436
$GNGGA,192856.00,3517.79327940,N,11121.57804026,W,4,18,0.7,1842.010,M,-23.838,M,1.0,0025*5E  04/19/22 14:28:58.429
$GNGGA,192857.00,3517.79327780,N,11121.57803925,W,4,18,0.7,1842.008,M,-23.838,M,1.0,0025*59  04/19/22 14:28:59.436
$GNGGA,192858.00,3517.79327813,N,11121.57804110,W,4,18,0.7,1842.010,M,-23.838,M,1.0,0025*53  04/19/22 14:29:00.428
$GNGGA,192859.00,3517.79327853,N,11121.57803950,W,4,18,0.7,1842.002,M,-23.838,M,1.0,0025*5E  04/19/22 14:29:01.436
$GNGGA,192900.00,3517.79327758,N,11121.57804075,W,4,18,0.7,1842.010,M,-23.838,M,1.0,0025*5D  04/19/22 14:29:02.428
$GNGGA,192901.00,3517.79327745,N,11121.57804045,W,4,18,0.7,1842.004,M,-23.838,M,1.0,0025*56  04/19/22 14:29:03.436
$GNGGA,192902.00,3517.79327947,N,11121.57804049,W,4,18,0.7,1842.004,M,-23.838,M,1.0,0025*55  04/19/22 14:29:04.428
$GNGGA,192903.00,3517.79327865,N,11121.57804042,W,4,18,0.7,1842.009,M,-23.838,M,1.0,0025*53  04/19/22 14:29:05.436
$GNGGA,192904.00,3517.79327895,N,11121.57804074,W,4,18,0.7,1842.014,M,-23.838,M,1.0,0025*52  04/19/22 14:29:06.427
$GNGGA,192905.00,3517.79327957,N,11121.57803938,W,4,18,0.7,1842.007,M,-23.838,M,1.0,0025*58  04/19/22 14:29:07.435
$GNGGA,192906.00,3517.79327949,N,11121.57803964,W,4,18,0.7,1842.012,M,-23.838,M,1.0,0025*59  04/19/22 14:29:08.427
$GNGGA,192907.00,3517.79327844,N,11121.57804019,W,4,18,0.7,1842.007,M,-23.838,M,1.0,0025*54  04/19/22 14:29:09.435
$GNGGA,192908.00,3517.79327854,N,11121.57803910,W,4,18,0.7,1842.008,M,-23.838,M,1.0,0025*52  04/19/22 14:29:10.427
$GNGGA,192909.00,3517.79327962,N,11121.57803938,W,4,18,0.7,1842.011,M,-23.838,M,1.0,0025*55  04/19/22 14:29:11.435
$GNGGA,192910.00,3517.79327881,N,11121.57803915,W,4,18,0.7,1842.007,M,-23.838,M,1.0,0025*59  04/19/22 14:29:12.426
$GNGGA,192911.00,3517.79327932,N,11121.57804023,W,4,18,0.7,1842.006,M,-23.838,M,1.0,0025*5B  04/19/22 14:29:13.434
$GNGGA,192912.00,3517.79327871,N,11121.57804070,W,4,18,0.7,1842.004,M,-23.838,M,1.0,0025*5A  04/19/22 14:29:14.442
$GNGGA,192913.00,3517.79327825,N,11121.57803983,W,4,18,0.7,1842.009,M,-23.838,M,1.0,0025*55  04/19/22 14:29:15.434
$GNGGA,192914.00,3517.79327855,N,11121.57803975,W,4,18,0.7,1842.008,M,-23.838,M,1.0,0025*5D  04/19/22 14:29:16.426
$GNGGA,192915.00,3517.79327856,N,11121.57803890,W,4,18,0.7,1842.007,M,-23.838,M,1.0,0025*5A  04/19/22 14:29:17.434
$GNGGA,192916.00,3517.79327896,N,11121.57804021,W,4,18,0.7,1842.013,M,-23.838,M,1.0,0025*55  04/19/22 14:29:18.426
$GNGGA,192917.00,3517.79328036,N,11121.57804014,W,4,18,0.7,1842.008,M,-23.838,M,1.0,0025*55  04/19/22 14:29:19.434
$GNGGA,192918.00,3517.79327894,N,11121.57803842,W,4,18,0.7,1842.009,M,-23.838,M,1.0,0025*58  04/19/22 14:29:20.426
$GNGGA,192919.00,3517.79327908,N,11121.57803895,W,4,18,0.7,1842.001,M,-23.838,M,1.0,0025*5F  04/19/22 14:29:21.433
$GNGGA,192920.00,3517.79327907,N,11121.57803963,W,4,18,0.7,1842.008,M,-23.838,M,1.0,0025*5B  04/19/22 14:29:22.425
$GNGGA,192921.00,3517.79327872,N,11121.57803886,W,4,18,0.7,1842.007,M,-23.838,M,1.0,0025*5C  04/19/22 14:29:23.433
$GNGGA,192922.00,3517.79327795,N,11121.57804004,W,4,18,0.7,1842.015,M,-23.838,M,1.0,0025*5F  04/19/22 14:29:24.441
$GNGGA,192923.00,3517.79327895,N,11121.57803944,W,4,18,0.7,1842.007,M,-23.838,M,1.0,0025*58  04/19/22 14:29:25.433
$GNGGA,192924.00,3517.79327945,N,11121.57803979,W,4,18,0.7,1842.003,M,-23.838,M,1.0,0025*59  04/19/22 14:29:26.425
$GNGGA,192925.00,3517.79327974,N,11121.57803817,W,4,18,0.7,1842.004,M,-23.838,M,1.0,0025*54  04/19/22 14:29:27.433
$GNGGA,192926.00,3517.79327889,N,11121.57803791,W,4,18,0.7,1842.007,M,-23.838,M,1.0,0025*56  04/19/22 14:29:28.424
$GNGGA,192927.00,3517.79328137,N,11121.57803962,W,4,18,0.7,1842.009,M,-23.838,M,1.0,0025*58  04/19/22 14:29:29.432
$GNGGA,192928.00,3517.79327915,N,11121.57804065,W,4,18,0.7,1842.008,M,-23.838,M,1.0,0025*58  04/19/22 14:29:30.424
$GNGGA,192929.00,3517.79327946,N,11121.57804019,W,4,18,0.7,1842.004,M,-23.838,M,1.0,0025*58  04/19/22 14:29:31.432
$GNGGA,192930.00,3517.79327880,N,11121.57803920,W,4,18,0.7,1842.012,M,-23.838,M,1.0,0025*58  04/19/22 14:29:32.425
$GNGGA,192931.00,3517.79327827,N,11121.57803989,W,4,18,0.7,1842.002,M,-23.838,M,1.0,0025*56  04/19/22 14:29:33.433
$GNGGA,192932.00,3517.79327865,N,11121.57803966,W,4,18,0.7,1842.008,M,-23.838,M,1.0,0025*58  04/19/22 14:29:34.439
$GNGGA,192933.00,3517.79327938,N,11121.57803834,W,4,18,0.7,1842.011,M,-23.838,M,1.0,0025*5E  04/19/22 14:29:35.432
$GNGGA,192934.00,3517.79327930,N,11121.57803917,W,4,18,0.7,1842.014,M,-23.838,M,1.0,0025*54  04/19/22 14:29:36.423
$GNGGA,192935.00,3517.79327711,N,11121.57804059,W,4,18,0.7,1842.010,M,-23.838,M,1.0,0025*58  04/19/22 14:29:37.431
$GNGGA,192936.00,3517.79327930,N,11121.57803843,W,4,18,0.7,1842.004,M,-23.838,M,1.0,0025*57  04/19/22 14:29:38.423
