$GNGGA,194541.00,3517.79327970,N,11121.57803854,W,4,17,0.7,1842.003,M,-23.838,M,1.0,0025*57  04/19/22 14:45:43.423
$GNGGA,194542.00,3517.79327955,N,11121.57803852,W,4,17,0.7,1842.008,M,-23.838,M,1.0,0025*5E  04/19/22 14:45:44.431
$GNGGA,194543.00,3517.79327775,N,11121.57803922,W,4,17,0.7,1842.007,M,-23.838,M,1.0,0025*5A  04/19/22 14:45:45.423
$GNGGA,194544.00,3517.79327959,N,11121.57803845,W,4,17,0.7,1842.007,M,-23.838,M,1.0,0025*5D  04/19/22 14:45:46.415
$GNGGA,194545.00,3517.79327828,N,11121.57803781,W,4,17,0.7,1842.005,M,-23.838,M,1.0,0025*5E  04/19/22 14:45:47.423
$GNGGA,194546.00,3517.79328039,N,11121.57803766,W,4,17,0.7,1842.003,M,-23.838,M,1.0,0025*55  04/19/22 14:45:48.415
$GNGGA,194547.00,3517.79327982,N,11121.57803753,W,4,17,0.7,1842.007,M,-23.838,M,1.0,0025*50  04/19/22 14:45:49.422
$GNGGA,194548.00,3517.79327948,N,11121.57803824,W,4,17,0.7,1842.004,M,-23.838,M,1.0,0025*55  04/19/22 14:45:50.414
$GNGGA,194549.00,3517.79327996,N,11121.57803867,W,4,17,0.7,1842.004,M,-23.838,M,1.0,0025*50  04/19/22 14:45:51.421
$GNGGA,194550.00,3517.79327813,N,11121.57803884,W,4,17,0.7,1842.004,M,-23.838,M,1.0,0025*59  04/19/22 14:45:52.414
$GNGGA,194551.00,3517.79327880,N,11121.57803864,W,4,17,0.7,1842.006,M,-23.838,M,1.0,0025*5E  04/19/22 14:45:53.421
$GNGGA,194552.00,3517.79327950,N,11121.57803987,W,4,17,0.7,1842.003,M,-23.838,M,1.0,0025*58  04/19/22 14:45:54.430
$GNGGA,194553.00,3517.79327896,N,11121.57804081,W,4,17,0.7,1842.001,M,-23.838,M,1.0,0025*58  04/19/22 14:45:55.421
$GNGGA,194554.00,3517.79328052,N,11121.57803844,W,4,17,0.7,1842.006,M,-23.838,M,1.0,0025*51  04/19/22 14:45:56.413
$GNGGA,194555.00,3517.79328087,N,11121.57803794,W,4,17,0.7,1842.006,M,-23.838,M,1.0,0025*5A  04/19/22 14:45:57.421
$GNGGA,194556.00,3517.79327933,N,11121.57803902,W,4,17,0.7,1841.998,M,-23.838,M,1.0,0025*5C  04/19/22 14:45:58.413
$GNGGA,194557.00,3517.79327993,N,11121.57803601,W,4,17,0.7,1842.011,M,-23.838,M,1.0,0025*50  04/19/22 14:45:59.421
$GNGGA,194558.00,3517.79328004,N,11121.57803934,W,4,17,0.7,1841.997,M,-23.838,M,1.0,0025*5A  04/19/22 14:46:00.412
$GNGGA,194559.00,3517.79327941,N,11121.57804005,W,4,17,0.7,1842.002,M,-23.838,M,1.0,0025*56  04/19/22 14:46:01.420
$GNGGA,194600.00,3517.79328039,N,11121.57803739,W,4,17,0.7,1842.002,M,-23.838,M,1.0,0025*5F  04/19/22 14:46:02.413
$GNGGA,194601.00,3517.79328038,N,11121.57803826,W,4,17,0.7,1842.006,M,-23.838,M,1.0,0025*5A  04/19/22 14:46:03.420
$GNGGA,194602.00,3517.79328031,N,11121.57804027,W,4,17,0.7,1842.007,M,-23.838,M,1.0,0025*5F  04/19/22 14:46:04.428
$GNGGA,194603.00,3517.79327937,N,11121.57803936,W,4,17,0.7,1842.009,M,-23.838,M,1.0,0025*5E  04/19/22 14:46:05.420
$GNGGA,194604.00,3517.79328001,N,11121.57803903,W,4,17,0.7,1842.005,M,-23.838,M,1.0,0025*50  04/19/22 14:46:06.428
$GNGGA,194605.00,3517.79327932,N,11121.57803865,W,4,17,0.7,1842.007,M,-23.838,M,1.0,0025*54  04/19/22 14:46:07.420
$GNGGA,194606.00,3517.79327980,N,11121.57803896,W,4,17,0.7,1842.002,M,-23.838,M,1.0,0025*57  04/19/22 14:46:08.428
$GNGGA,194607.00,3517.79328083,N,11121.57803787,W,4,17,0.7,1842.003,M,-23.838,M,1.0,0025*5D  04/19/22 14:46:09.419
$GNGGA,194608.00,3517.79328101,N,11121.57803832,W,4,17,0.7,1841.999,M,-23.838,M,1.0,0025*51  04/19/22 14:46:10.427
$GNGGA,194609.00,3517.79327941,N,11121.57803979,W,4,17,0.7,1842.005,M,-23.838,M,1.0,0025*52  04/19/22 14:46:11.420
$GNGGA,194610.00,3517.79327967,N,11121.57803957,W,4,17,0.7,1842.001,M,-23.838,M,1.0,0025*56  04/19/22 14:46:12.427
$GNGGA,194611.00,3517.79327832,N,11121.57803981,W,4,17,0.7,1842.002,M,-23.838,M,1.0,0025*5E  04/19/22 14:46:13.419
$GNGGA,194612.00,3517.79327947,N,11121.57803906,W,4,17,0.7,1842.006,M,-23.838,M,1.0,0025*55  04/19/22 14:46:14.427
$GNGGA,194613.00,3517.79327967,N,11121.57803976,W,4,17,0.7,1842.003,M,-23.838,M,1.0,0025*54  04/19/22 14:46:15.418
$GNGGA,194614.00,3517.79327863,N,11121.57804157,W,4,17,0.7,1842.002,M,-23.838,M,1.0,0025*5B  04/19/22 14:46:16.427
$GNGGA,194615.00,3517.79328034,N,11121.57803909,W,4,17,0.7,1841.997,M,-23.838,M,1.0,0025*5D  04/19/22 14:46:17.419
$GNGGA,194616.00,3517.79327888,N,11121.57803790,W,4,17,0.7,1842.006,M,-23.838,M,1.0,0025*52  04/19/22 14:46:18.426
$GNGGA,194617.00,3517.79327840,N,11121.57803646,W,4,17,0.7,1842.008,M,-23.838,M,1.0,0025*53  04/19/22 14:46:19.418
$GNGGA,194618.00,3517.79327816,N,11121.57803704,W,4,17,0.7,1842.001,M,-23.838,M,1.0,0025*51  04/19/22 14:46:20.426
$GNGGA,194619.00,3517.79327879,N,11121.57803668,W,4,17,0.7,1842.005,M,-23.838,M,1.0,0025*56  04/19/22 14:46:21.418
$GNGGA,194620.00,3517.79327908,N,11121.57803760,W,4,17,0.7,1842.006,M,-23.838,M,1.0,0025*51  04/19/22 14:46:22.426
$GNGGA,194621.00,3517.79327743,N,11121.57803913,W,4,17,0.7,1842.005,M,-23.838,M,1.0,0025*58  04/19/22 14:46:23.418
$GNGGA,194622.00,3517.79328040,N,11121.57804025,W,4,17,0.7,1842.006,M,-23.838,M,1.0,0025*58  04/19/22 14:46:24.426
$GNGGA,194623.00,3517.79327886,N,11121.57804042,W,4,17,0.7,1842.010,M,-23.838,M,1.0,0025*52  04/19/22 14:46:25.417
$GNGGA,194624.00,3517.79327911,N,11121.57803830,W,4,17,0.7,1842.007,M,-23.838,M,1.0,0025*56  04/19/22 14:46:26.425
$GNGGA,194625.00,3517.79327943,N,11121.57803986,W,4,17,0.7,1842.007,M,-23.838,M,1.0,0025*5C  04/19/22 14:46:27.417
$GNGGA,194626.00,3517.79328016,N,11121.57803977,W,4,17,0.7,1842.007,M,-23.838,M,1.0,0025*57  04/19/22 14:46:28.425
$GNGGA,194627.00,3517.79327797,N,11121.57803949,W,4,17,0.7,1842.001,M,-23.838,M,1.0,0025*5C  04/19/22 14:46:29.417
$GNGGA,194628.00,3517.79327828,N,11121.57803932,W,4,17,0.7,1842.007,M,-23.838,M,1.0,0025*52  04/19/22 14:46:30.425
$GNGGA,194629.00,3517.79327930,N,11121.57803897,W,4,17,0.7,1842.008,M,-23.838,M,1.0,0025*5A  04/19/22 14:46:31.416
$GNGGA,194630.00,3517.79327878,N,11121.57804071,W,4,17,0.7,1842.009,M,-23.838,M,1.0,0025*59  04/19/22 14:46:32.424
$GNGGA,194631.00,3517.79327923,N,11121.57803926,W,4,17,0.7,1842.009,M,-23.838,M,1.0,0025*5B  04/19/22 14:46:33.416
$GNGGA,194632.00,3517.79327877,N,11121.57803915,W,4,17,0.7,1842.000,M,-23.838,M,1.0,0025*51  04/19/22 14:46:34.425
$GNGGA,194633.00,3517.79328022,N,11121.57804045,W,4,17,0.7,1842.006,M,-23.838,M,1.0,0025*5A  04/19/22 14:46:35.416
$GNGGA,194634.00,3517.79327851,N,11121.57803919,W,4,17,0.7,1842.006,M,-23.838,M,1.0,0025*59  04/19/22 14:46:36.424
$GNGGA,194635.00,3517.79328029,N,11121.57803872,W,4,17,0.7,1842.013,M,-23.838,M,1.0,0025*58  04/19/22 14:46:37.416
$GNGGA,194636.00,3517.79327846,N,11121.57803858,W,4,17,0.7,1842.005,M,-23.838,M,1.0,0025*5A  04/19/22 14:46:38.424
$GNGGA,194637.00,3517.79327853,N,11121.57803744,W,4,17,0.7,1842.014,M,-23.838,M,1.0,0025*5D  04/19/22 14:46:39.416
$GNGGA,194638.00,3517.79328001,N,11121.57804047,W,4,17,0.7,1842.006,M,-23.838,M,1.0,0025*52  04/19/22 14:46:40.424
$GNGGA,194639.00,3517.79327977,N,11121.57803964,W,4,17,0.7,1842.004,M,-23.838,M,1.0,0025*59  04/19/22 14:46:41.416
$GNGGA,194640.00,3517.79328086,N,11121.57803917,W,4,17,0.7,1842.007,M,-23.838,M,1.0,0025*58  04/19/22 14:46:42.423
$GNGGA,194641.00,3517.79328035,N,11121.57803889,W,4,17,0.7,1842.007,M,-23.838,M,1.0,0025*57  04/19/22 14:46:43.415
$GNGGA,194642.00,3517.79328028,N,11121.57803942,W,4,17,0.7,1842.004,M,-23.838,M,1.0,0025*5D  04/19/22 14:46:44.423
$GNGGA,194643.00,3517.79327851,N,11121.57804019,W,4,17,0.7,1842.007,M,-23.838,M,1.0,0025*56  04/19/22 14:46:45.414
$GNGGA,194644.00,3517.79327912,N,11121.57804040,W,4,17,0.7,1842.009,M,-23.838,M,1.0,0025*55  04/19/22 14:46:46.422
$GNGGA,194645.00,3517.79328082,N,11121.57803874,W,4,17,0.7,1842.005,M,-23.838,M,1.0,0025*5F  04/19/22 14:46:47.414
$GNGGA,194646.00,3517.79327918,N,11121.57803816,W,4,17,0.7,1842.012,M,-23.838,M,1.0,0025*5B  04/19/22 14:46:48.422
$GNGGA,194647.00,3517.79327995,N,11121.57803985,W,4,17,0.7,1842.001,M,-23.838,M,1.0,0025*56  04/19/22 14:46:49.414
$GNGGA,194648.00,3517.79327896,N,11121.57803842,W,4,17,0.7,1842.001,M,-23.838,M,1.0,0025*51  04/19/22 14:46:50.422
$GNGGA,194649.00,3517.79327891,N,11121.57803880,W,4,17,0.7,1842.008,M,-23.838,M,1.0,0025*50  04/19/22 14:46:51.414
$GNGGA,194650.00,3517.79328011,N,11121.57803785,W,4,17,0.7,1842.008,M,-23.838,M,1.0,0025*5D  04/19/22 14:46:52.422
$GNGGA,194651.00,3517.79327883,N,11121.57804027,W,4,17,0.7,1842.009,M,-23.838,M,1.0,0025*59  04/19/22 14:46:53.413
$GNGGA,194652.00,3517.79327905,N,11121.57803892,W,4,17,0.7,1842.006,M,-23.838,M,1.0,0025*5B  04/19/22 14:46:54.422
$GNGGA,194653.00,3517.79328097,N,11121.57804021,W,4,17,0.7,1842.008,M,-23.838,M,1.0,0025*5E  04/19/22 14:46:55.414
$GNGGA,194654.00,3517.79328018,N,11121.57804011,W,4,17,0.7,1842.002,M,-23.838,M,1.0,0025*57  04/19/22 14:46:56.421
$GNGGA,194655.00,3517.79327920,N,11121.57803702,W,4,17,0.7,1842.011,M,-23.838,M,1.0,0025*5B  04/19/22 14:46:57.413
$GNGGA,194716.00,3517.79327952,N,11121.57803950,W,4,17,0.7,1842.004,M,-23.838,M,1.0,0025*55  04/19/22 14:47:18.418
$GNGGA,194717.00,3517.79327878,N,11121.57803862,W,4,17,0.7,1842.008,M,-23.838,M,1.0,0025*51  04/19/22 14:47:19.426
$GNGGA,194718.00,3517.79328043,N,11121.57803964,W,4,17,0.7,1842.011,M,-23.838,M,1.0,0025*5E  04/19/22 14:47:20.418
$GNGGA,194719.00,3517.79328052,N,11121.57803881,W,4,17,0.7,1841.999,M,-23.838,M,1.0,0025*5F  04/19/22 14:47:21.426
$GNGGA,194720.00,3517.79327963,N,11121.57803935,W,4,17,0.7,1842.005,M,-23.838,M,1.0,0025*50  04/19/22 14:47:22.418
$GNGGA,194721.00,3517.79328013,N,11121.57803868,W,4,17,0.7,1842.009,M,-23.838,M,1.0,0025*55  04/19/22 14:47:23.425
$GNGGA,194722.00,3517.79327789,N,11121.57803967,W,4,17,0.7,1842.009,M,-23.838,M,1.0,0025*53  04/19/22 14:47:24.433
$GNGGA,194723.00,3517.79327764,N,11121.57804014,W,4,17,0.7,1842.007,M,-23.838,M,1.0,0025*55  04/19/22 14:47:25.426
$GNGGA,194724.00,3517.79327867,N,11121.57803813,W,4,17,0.7,1842.007,M,-23.838,M,1.0,0025*56  04/19/22 14:47:26.418
$GNGGA,194725.00,3517.79327975,N,11121.57803968,W,4,17,0.7,1842.004,M,-23.838,M,1.0,0025*5B  04/19/22 14:47:27.426
$GNGGA,194726.00,3517.79328008,N,11121.57804030,W,4,17,0.7,1842.006,M,-23.838,M,1.0,0025*55  04/19/22 14:47:28.418
$GNGGA,194727.00,3517.79327990,N,11121.57803993,W,4,17,0.7,1842.013,M,-23.838,M,1.0,0025*50  04/19/22 14:47:29.425
$GNGGA,194728.00,3517.79327830,N,11121.57803834,W,4,17,0.7,1842.012,M,-23.838,M,1.0,0025*59  04/19/22 14:47:30.417
$GNGGA,194729.00,3517.79327997,N,11121.57803990,W,4,17,0.7,1842.010,M,-23.838,M,1.0,0025*59  04/19/22 14:47:31.425
$GNGGA,194730.00,3517.79327747,N,11121.57803765,W,4,17,0.7,1842.005,M,-23.838,M,1.0,0025*52  04/19/22 14:47:32.417
$GNGGA,194731.00,3517.79327977,N,11121.57803770,W,4,17,0.7,1842.007,M,-23.838,M,1.0,0025*58  04/19/22 14:47:33.424
$GNGGA,194732.00,3517.79328143,N,11121.57803926,W,4,17,0.7,1842.012,M,-23.838,M,1.0,0025*52  04/19/22 14:47:34.432
$GNGGA,194733.00,3517.79327969,N,11121.57804028,W,4,17,0.7,1842.008,M,-23.838,M,1.0,0025*57  04/19/22 14:47:35.424
$GNGGA,194734.00,3517.79327915,N,11121.57803787,W,4,17,0.7,1842.009,M,-23.838,M,1.0,0025*5F  04/19/22 14:47:36.416
$GNGGA,194735.00,3517.79328120,N,11121.57803746,W,4,17,0.7,1842.010,M,-23.838,M,1.0,0025*5A  04/19/22 14:47:37.424
$GNGGA,194736.00,3517.79327966,N,11121.57804028,W,4,17,0.7,1842.012,M,-23.838,M,1.0,0025*56  04/19/22 14:47:38.416
$GNGGA,194737.00,3517.79328075,N,11121.57803910,W,4,17,0.7,1842.012,M,-23.838,M,1.0,0025*56  04/19/22 14:47:39.424
$GNGGA,194738.00,3517.79327941,N,11121.57803835,W,4,17,0.7,1842.006,M,-23.838,M,1.0,0025*5B  04/19/22 14:47:40.415
$GNGGA,194739.00,3517.79327785,N,11121.57803933,W,4,17,0.7,1842.008,M,-23.838,M,1.0,0025*55  04/19/22 14:47:41.423
$GNGGA,194740.00,3517.79327616,N,11121.57804003,W,4,17,0.7,1842.011,M,-23.838,M,1.0,0025*55  04/19/22 14:47:42.415
$GNGGA,194741.00,3517.79327712,N,11121.57804121,W,4,17,0.7,1842.009,M,-23.838,M,1.0,0025*59  04/19/22 14:47:43.423
$GNGGA,194742.00,3517.79327746,N,11121.57803899,W,4,17,0.7,1842.011,M,-23.838,M,1.0,0025*5F  04/19/22 14:47:44.431
$GNGGA,194743.00,3517.79327881,N,11121.57803734,W,4,17,0.7,1842.009,M,-23.838,M,1.0,0025*5B  04/19/22 14:47:45.423
$GNGGA,194744.00,3517.79327757,N,11121.57804085,W,4,17,0.7,1842.006,M,-23.838,M,1.0,0025*5D  04/19/22 14:47:46.415
$GNGGA,194745.00,3517.79327672,N,11121.57803922,W,4,17,0.7,1842.009,M,-23.838,M,1.0,0025*56  04/19/22 14:47:47.423
$GNGGA,194746.00,3517.79327838,N,11121.57803969,W,4,17,0.7,1842.007,M,-23.838,M,1.0,0025*54  04/19/22 14:47:48.415
$GNGGA,194747.00,3517.79327789,N,11121.57804118,W,4,17,0.7,1842.010,M,-23.838,M,1.0,0025*5F  04/19/22 14:47:49.422
$GNGGA,194748.00,3517.79327708,N,11121.57803880,W,4,17,0.7,1842.008,M,-23.838,M,1.0,0025*5F  04/19/22 14:47:50.415
$GNGGA,194749.00,3517.79327785,N,11121.57803881,W,4,17,0.7,1842.011,M,-23.838,M,1.0,0025*52  04/19/22 14:47:51.422
$GNGGA,194750.00,3517.79327723,N,11121.57803862,W,4,17,0.7,1842.011,M,-23.838,M,1.0,0025*5B  04/19/22 14:47:52.414
$GNGGA,194751.00,3517.79327791,N,11121.57803880,W,4,17,0.7,1842.009,M,-23.838,M,1.0,0025*56  04/19/22 14:47:53.422
$GNGGA,194752.00,3517.79327915,N,11121.57803899,W,4,17,0.7,1842.006,M,-23.838,M,1.0,0025*50  04/19/22 14:47:54.430
$GNGGA,194753.00,3517.79327667,N,11121.57803825,W,4,17,0.7,1842.010,M,-23.838,M,1.0,0025*5B  04/19/22 14:47:55.421
$GNGGA,194754.00,3517.79327750,N,11121.57804003,W,4,17,0.7,1842.006,M,-23.838,M,1.0,0025*55  04/19/22 14:47:56.413
$GNGGA,194755.00,3517.79327960,N,11121.57803966,W,4,17,0.7,1842.014,M,-23.838,M,1.0,0025*57  04/19/22 14:47:57.421
$GNGGA,194756.00,3517.79327993,N,11121.57803845,W,4,17,0.7,1842.009,M,-23.838,M,1.0,0025*54  04/19/22 14:47:58.413
$GNGGA,194757.00,3517.79332631,N,11121.57804258,W,4,17,0.7,1842.004,M,-23.838,M,1.0,0025*5A  04/19/22 14:47:59.421
$GNGGA,194758.00,3517.79336812,N,11121.57804295,W,4,17,0.7,1842.002,M,-23.838,M,1.0,0025*59  04/19/22 14:48:00.413
$GNGGA,194759.00,3517.79357692,N,11121.57806893,W,4,17,0.7,1841.992,M,-23.838,M,1.0,0025*54  04/19/22 14:48:01.421
$GNGGA,194800.00,3517.79405294,N,11121.57813154,W,4,17,0.7,1841.969,M,-23.838,M,1.0,0025*57  04/19/22 14:48:02.412
$GNGGA,194801.00,3517.79450963,N,11121.57822805,W,4,17,0.7,1841.956,M,-23.838,M,1.0,0025*56  04/19/22 14:48:03.420
$GNGGA,194802.00,3517.79499181,N,11121.57830490,W,4,17,0.7,1841.920,M,-23.838,M,1.0,0025*56  04/19/22 14:48:04.428
$GNGGA,194803.00,3517.79543821,N,11121.57843201,W,4,17,0.7,1841.939,M,-23.838,M,1.0,0025*50  04/19/22 14:48:05.420
$GNGGA,194804.00,3517.79588465,N,11121.57853815,W,4,17,0.7,1841.922,M,-23.838,M,1.0,0025*58  04/19/22 14:48:06.412
$GNGGA,194805.00,3517.79639464,N,11121.57868143,W,4,17,0.7,1841.867,M,-23.838,M,1.0,0025*53  04/19/22 14:48:07.420
$GNGGA,194806.00,3517.79690094,N,11121.57879380,W,4,17,0.7,1841.862,M,-23.838,M,1.0,0025*50  04/19/22 14:48:08.428
$GNGGA,194807.00,3517.79738152,N,11121.57890116,W,4,17,0.7,1841.836,M,-23.838,M,1.0,0025*52  04/19/22 14:48:09.420
$GNGGA,194808.00,3517.79783423,N,11121.57899526,W,4,17,0.7,1841.821,M,-23.838,M,1.0,0025*56  04/19/22 14:48:10.427
$GNGGA,194809.00,3517.79821877,N,11121.57904911,W,4,17,0.7,1841.817,M,-23.838,M,1.0,0025*55  04/19/22 14:48:11.419
$GNGGA,194810.00,3517.79861372,N,11121.57913542,W,4,17,0.7,1841.819,M,-23.838,M,1.0,0025*55  04/19/22 14:48:12.427
$GNGGA,194811.00,3517.79911942,N,11121.57920297,W,4,17,0.7,1841.782,M,-23.838,M,1.0,0025*59  04/19/22 14:48:13.419
$GNGGA,194812.00,3517.79957411,N,11121.57928257,W,4,17,0.7,1841.750,M,-23.838,M,1.0,0025*58  04/19/22 14:48:14.427
$GNGGA,194813.00,3517.79998393,N,11121.57936474,W,4,17,0.7,1841.758,M,-23.838,M,1.0,0025*57  04/19/22 14:48:15.419
$GNGGA,194814.00,3517.80039728,N,11121.57943259,W,4,17,0.7,1841.734,M,-23.838,M,1.0,0025*51  04/19/22 14:48:16.427
$GNGGA,194815.00,3517.80082303,N,11121.57951761,W,4,17,0.7,1841.736,M,-23.838,M,1.0,0025*52  04/19/22 14:48:17.419
$GNGGA,194816.00,3517.80126023,N,11121.57960740,W,4,17,0.7,1841.718,M,-23.838,M,1.0,0025*52  04/19/22 14:48:18.426
$GNGGA,194817.00,3517.80171044,N,11121.57966628,W,4,17,0.7,1841.693,M,-23.838,M,1.0,0025*5B  04/19/22 14:48:19.418
$GNGGA,194818.00,3517.80215686,N,11121.57974809,W,4,17,0.7,1841.700,M,-23.838,M,1.0,0025*58  04/19/22 14:48:20.426
$GNGGA,194819.00,3517.80265116,N,11121.57983475,W,4,17,0.7,1841.703,M,-23.838,M,1.0,0025*5C  04/19/22 14:48:21.418
$GNGGA,194820.00,3517.80314269,N,11121.57990072,W,4,16,0.8,1841.680,M,-23.838,M,1.0,0025*5F  04/19/22 14:48:22.426
$GNGGA,194821.00,3517.80361177,N,11121.57999118,W,4,16,0.8,1841.654,M,-23.838,M,1.0,0025*5D  04/19/22 14:48:23.417
$GNGGA,194822.00,3517.80406873,N,11121.58007798,W,4,17,0.7,1841.660,M,-23.838,M,1.0,0025*53  04/19/22 14:48:24.425
$GNGGA,194823.00,3517.80458327,N,11121.58015969,W,4,17,0.7,1841.624,M,-23.838,M,1.0,0025*50  04/19/22 14:48:25.418
$GNGGA,194824.00,3517.80506471,N,11121.58020356,W,4,17,0.7,1841.623,M,-23.838,M,1.0,0025*5E  04/19/22 14:48:26.426
$GNGGA,194825.00,3517.80553601,N,11121.58024908,W,4,17,0.7,1841.564,M,-23.838,M,1.0,0025*5F  04/19/22 14:48:27.417
$GNGGA,194826.00,3517.80596840,N,11121.58022021,W,4,17,0.7,1841.572,M,-23.838,M,1.0,0025*5D  04/19/22 14:48:28.425
$GNGGA,194827.00,3517.80637598,N,11121.58012188,W,4,17,0.7,1841.539,M,-23.838,M,1.0,0025*52  04/19/22 14:48:29.417
$GNGGA,194828.00,3517.80680785,N,11121.57995068,W,4,17,0.7,1841.537,M,-23.838,M,1.0,0025*57  04/19/22 14:48:30.425
$GNGGA,194829.00,3517.80722740,N,11121.57976555,W,4,17,0.7,1841.527,M,-23.838,M,1.0,0025*51  04/19/22 14:48:31.417
$GNGGA,194830.00,3517.80762036,N,11121.57951904,W,4,17,0.7,1841.494,M,-23.838,M,1.0,0025*5F  04/19/22 14:48:32.425
$GNGGA,194831.00,3517.80803941,N,11121.57922559,W,4,17,0.7,1841.474,M,-23.838,M,1.0,0025*51  04/19/22 14:48:33.417
$GNGGA,194832.00,3517.80848016,N,11121.57897759,W,4,17,0.7,1841.464,M,-23.838,M,1.0,0025*5A  04/19/22 14:48:34.424
$GNGGA,194833.00,3517.80887449,N,11121.57876658,W,4,17,0.7,1841.426,M,-23.838,M,1.0,0025*5F  04/19/22 14:48:35.416
$GNGGA,194834.00,3517.80926972,N,11121.57860249,W,4,17,0.7,1841.424,M,-23.838,M,1.0,0025*56  04/19/22 14:48:36.424
$GNGGA,194835.00,3517.80965284,N,11121.57850504,W,4,17,0.7,1841.400,M,-23.838,M,1.0,0025*59  04/19/22 14:48:37.416
$GNGGA,194836.00,3517.81003621,N,11121.57848437,W,4,17,0.7,1841.396,M,-23.838,M,1.0,0025*59  04/19/22 14:48:38.424
$GNGGA,194837.00,3517.81041683,N,11121.57850545,W,4,17,0.7,1841.380,M,-23.838,M,1.0,0025*5C  04/19/22 14:48:39.415
$GNGGA,194838.00,3517.81075352,N,11121.57860527,W,4,17,0.7,1841.383,M,-23.838,M,1.0,0025*59  04/19/22 14:48:40.424
$GNGGA,194839.00,3517.81110009,N,11121.57875233,W,4,17,0.7,1841.368,M,-23.838,M,1.0,0025*54  04/19/22 14:48:41.416
$GNGGA,194840.00,3517.81144465,N,11121.57894033,W,4,17,0.7,1841.351,M,-23.838,M,1.0,0025*52  04/19/22 14:48:42.423
$GNGGA,194841.00,3517.81176210,N,11121.57917919,W,4,17,0.7,1841.355,M,-23.838,M,1.0,0025*59  04/19/22 14:48:43.415
$GNGGA,194842.00,3517.81206042,N,11121.57948731,W,4,17,0.7,1841.371,M,-23.838,M,1.0,0025*53  04/19/22 14:48:44.423
$GNGGA,194843.00,3517.81234052,N,11121.57980123,W,4,17,0.7,1841.345,M,-23.838,M,1.0,0025*54  04/19/22 14:48:45.415
$GNGGA,194844.00,3517.81257514,N,11121.58016052,W,4,16,0.8,1841.339,M,-23.838,M,1.0,0025*5A  04/19/22 14:48:46.423
$GNGGA,194845.00,3517.81277581,N,11121.58052077,W,4,16,0.8,1841.317,M,-23.838,M,1.0,0025*5E  04/19/22 14:48:47.415
$GNGGA,194846.00,3517.81289075,N,11121.58092143,W,4,17,0.7,1841.296,M,-23.838,M,1.0,0025*5E  04/19/22 14:48:48.422
$GNGGA,194847.00,3517.81295890,N,11121.58130736,W,4,17,0.7,1841.319,M,-23.838,M,1.0,0025*5A  04/19/22 14:48:49.414
$GNGGA,194848.00,3517.81298126,N,11121.58168159,W,4,17,0.7,1841.311,M,-23.838,M,1.0,0025*56  04/19/22 14:48:50.422
$GNGGA,194849.00,3517.81295991,N,11121.58204634,W,4,17,0.7,1841.312,M,-23.838,M,1.0,0025*58  04/19/22 14:48:51.414
$GNGGA,194850.00,3517.81289115,N,11121.58239876,W,4,17,0.7,1841.312,M,-23.838,M,1.0,0025*5F  04/19/22 14:48:52.422
$GNGGA,194851.00,3517.81279150,N,11121.58272753,W,4,17,0.7,1841.337,M,-23.838,M,1.0,0025*50  04/19/22 14:48:53.414
$GNGGA,194852.00,3517.81265455,N,11121.58300188,W,4,17,0.7,1841.350,M,-23.838,M,1.0,0025*5B  04/19/22 14:48:54.421
$GNGGA,194853.00,3517.81247970,N,11121.58326218,W,4,17,0.7,1841.356,M,-23.838,M,1.0,0025*58  04/19/22 14:48:55.413
$GNGGA,194854.00,3517.81226423,N,11121.58349117,W,4,17,0.7,1841.366,M,-23.838,M,1.0,0025*55  04/19/22 14:48:56.421
$GNGGA,194855.00,3517.81205762,N,11121.58368334,W,4,17,0.7,1841.396,M,-23.838,M,1.0,0025*5C  04/19/22 14:48:57.414
$GNGGA,194856.00,3517.81180582,N,11121.58383863,W,4,17,0.7,1841.413,M,-23.838,M,1.0,0025*5B  04/19/22 14:48:58.422
$GNGGA,194857.00,3517.81156470,N,11121.58395970,W,4,17,0.7,1841.413,M,-23.838,M,1.0,0025*59  04/19/22 14:48:59.414
$GNGGA,194858.00,3517.81132390,N,11121.58402119,W,4,17,0.7,1841.420,M,-23.838,M,1.0,0025*53  04/19/22 14:49:00.421
$GNGGA,194859.00,3517.81112129,N,11121.58400634,W,4,17,0.7,1841.429,M,-23.838,M,1.0,0025*53  04/19/22 14:49:01.413
$GNGGA,194900.00,3517.81092300,N,11121.58393062,W,4,17,0.7,1841.451,M,-23.838,M,1.0,0025*59  04/19/22 14:49:02.420
$GNGGA,194901.00,3517.81071709,N,11121.58379231,W,4,17,0.7,1841.444,M,-23.838,M,1.0,0025*5C  04/19/22 14:49:03.412
$GNGGA,194902.00,3517.81049803,N,11121.58359424,W,4,17,0.7,1841.449,M,-23.838,M,1.0,0025*5C  04/19/22 14:49:04.420
$GNGGA,194903.00,3517.81025195,N,11121.58338379,W,4,17,0.7,1841.485,M,-23.838,M,1.0,0025*59  04/19/22 14:49:05.413
$GNGGA,194904.00,3517.80999685,N,11121.58311734,W,4,17,0.7,1841.476,M,-23.838,M,1.0,0025*5D  04/19/22 14:49:06.420
$GNGGA,194905.00,3517.80966155,N,11121.58276993,W,4,17,0.7,1841.462,M,-23.838,M,1.0,0025*50  04/19/22 14:49:07.412
$GNGGA,194906.00,3517.80929541,N,11121.58241001,W,4,17,0.7,1841.460,M,-23.838,M,1.0,0025*5D  04/19/22 14:49:08.420
$GNGGA,194907.00,3517.80893366,N,11121.58204467,W,4,17,0.7,1841.486,M,-23.838,M,1.0,0025*52  04/19/22 14:49:09.412
$GNGGA,194908.00,3517.80856112,N,11121.58174189,W,4,17,0.7,1841.515,M,-23.838,M,1.0,0025*5F  04/19/22 14:49:10.420
$GNGGA,194909.00,3517.80820370,N,11121.58144305,W,4,17,0.7,1841.517,M,-23.838,M,1.0,0025*5E  04/19/22 14:49:11.428
$GNGGA,194910.00,3517.80783801,N,11121.58116610,W,4,17,0.7,1841.559,M,-23.838,M,1.0,0025*51  04/19/22 14:49:12.419
$GNGGA,194911.00,3517.80741730,N,11121.58092018,W,4,17,0.7,1841.551,M,-23.838,M,1.0,0025*58  04/19/22 14:49:13.428
$GNGGA,194912.00,3517.80701472,N,11121.58069869,W,4,17,0.7,1841.552,M,-23.838,M,1.0,0025*53  04/19/22 14:49:14.419
$GNGGA,194913.00,3517.80656438,N,11121.58051895,W,4,17,0.7,1841.546,M,-23.838,M,1.0,0025*52  04/19/22 14:49:15.427
$GNGGA,194914.00,3517.80613818,N,11121.58037300,W,4,17,0.7,1841.568,M,-23.838,M,1.0,0025*51  04/19/22 14:49:16.419
$GNGGA,194915.00,3517.80566761,N,11121.58024427,W,4,16,0.8,1841.574,M,-23.838,M,1.0,0025*53  04/19/22 14:49:17.427
$GNGGA,194916.00,3517.80517256,N,11121.58012457,W,4,16,0.8,1841.597,M,-23.838,M,1.0,0025*58  04/19/22 14:49:18.419
$GNGGA,194917.00,3517.80469032,N,11121.58001861,W,4,16,0.8,1841.637,M,-23.838,M,1.0,0025*53  04/19/22 14:49:19.427
$GNGGA,194918.00,3517.80418567,N,11121.57994517,W,4,16,0.8,1841.621,M,-23.838,M,1.0,0025*5E  04/19/22 14:49:20.419
$GNGGA,194919.00,3517.80368214,N,11121.57986586,W,4,16,0.8,1841.639,M,-23.838,M,1.0,0025*5E  04/19/22 14:49:21.426
$GNGGA,194920.00,3517.80318902,N,11121.57979048,W,4,16,0.8,1841.685,M,-23.838,M,1.0,0025*5F  04/19/22 14:49:22.418
$GNGGA,194921.00,3517.80267631,N,11121.57975423,W,4,16,0.8,1841.689,M,-23.838,M,1.0,0025*51  04/19/22 14:49:23.426
$GNGGA,194922.00,3517.80219343,N,11121.57974847,W,4,16,0.8,1841.703,M,-23.838,M,1.0,0025*57  04/19/22 14:49:24.418
$GNGGA,194923.00,3517.80169424,N,11121.57969566,W,4,16,0.8,1841.688,M,-23.838,M,1.0,0025*54  04/19/22 14:49:25.426
$GNGGA,194924.00,3517.80118081,N,11121.57968533,W,4,16,0.8,1841.716,M,-23.838,M,1.0,0025*59  04/19/22 14:49:26.417
$GNGGA,194925.00,3517.80070359,N,11121.57967526,W,4,16,0.8,1841.740,M,-23.838,M,1.0,0025*59  04/19/22 14:49:27.425
$GNGGA,194926.00,3517.80022491,N,11121.57963496,W,4,16,0.8,1841.768,M,-23.838,M,1.0,0025*5A  04/19/22 14:49:28.417
$GNGGA,194927.00,3517.79972029,N,11121.57964795,W,4,16,0.8,1841.790,M,-23.838,M,1.0,0025*56  04/19/22 14:49:29.425
$GNGGA,194928.00,3517.79922123,N,11121.57962322,W,4,16,0.8,1841.803,M,-23.838,M,1.0,0025*5C  04/19/22 14:49:30.417
$GNGGA,194929.00,3517.79871723,N,11121.57960622,W,4,16,0.8,1841.824,M,-23.838,M,1.0,0025*5E  04/19/22 14:49:31.424
$GNGGA,194930.00,3517.79823685,N,11121.57958541,W,4,16,0.8,1841.824,M,-23.838,M,1.0,0025*51  04/19/22 14:49:32.417
$GNGGA,194931.00,3517.79776022,N,11121.57959605,W,4,17,0.7,1841.856,M,-23.838,M,1.0,0025*5D  04/19/22 14:49:33.424
$GNGGA,194932.00,3517.79726585,N,11121.57955845,W,4,17,0.7,1841.885,M,-23.838,M,1.0,0025*5B  04/19/22 14:49:34.433
$GNGGA,194933.00,3517.79679055,N,11121.57954842,W,4,17,0.7,1841.905,M,-23.838,M,1.0,0025*56  04/19/22 14:49:35.425
$GNGGA,194934.00,3517.79633265,N,11121.57953481,W,4,17,0.7,1841.909,M,-23.838,M,1.0,0025*56  04/19/22 14:49:36.416
$GNGGA,194935.00,3517.79623475,N,11121.57954085,W,4,17,0.7,1841.915,M,-23.838,M,1.0,0025*5B  04/19/22 14:49:37.424
$GNGGA,194936.00,3517.79623113,N,11121.57954038,W,4,17,0.7,1841.910,M,-23.838,M,1.0,0025*5E  04/19/22 14:49:38.416
$GNGGA,194937.00,3517.79623085,N,11121.57953775,W,4,17,0.7,1841.906,M,-23.838,M,1.0,0025*5F  04/19/22 14:49:39.424
$GNGGA,194938.00,3517.79623146,N,11121.57953739,W,4,17,0.7,1841.915,M,-23.838,M,1.0,0025*54  04/19/22 14:49:40.416
$GNGGA,194939.00,3517.79623005,N,11121.57953780,W,4,17,0.7,1841.911,M,-23.838,M,1.0,0025*55  04/19/22 14:49:41.424
$GNGGA,194940.00,3517.79623202,N,11121.57953867,W,4,17,0.7,1841.916,M,-23.838,M,1.0,0025*5F  04/19/22 14:49:42.415
