$GNGGA,193046.00,3517.79327956,N,11121.57803918,W,4,18,0.7,1842.012,M,-23.838,M,1.0,0025*50  04/19/22 14:30:48.424
$GNGGA,193047.00,3517.79327831,N,11121.57804009,W,4,18,0.7,1842.007,M,-23.838,M,1.0,0025*5B  04/19/22 14:30:49.432
$GNGGA,193048.00,3517.79327909,N,11121.57803910,W,4,18,0.7,1842.008,M,-23.838,M,1.0,0025*57  04/19/22 14:30:50.424
$GNGGA,193049.00,3517.79327837,N,11121.57804094,W,4,18,0.7,1842.001,M,-23.838,M,1.0,0025*51  04/19/22 14:30:51.432
$GNGGA,193050.00,3517.79327868,N,11121.57803919,W,4,18,0.7,1842.008,M,-23.838,M,1.0,0025*51  04/19/22 14:30:52.424
$GNGGA,193051.00,3517.79327914,N,11121.57803923,W,4,18,0.7,1842.011,M,-23.838,M,1.0,0025*5B  04/19/22 14:30:53.432
$GNGGA,193052.00,3517.79327883,N,11121.57804009,W,4,18,0.7,1842.009,M,-23.838,M,1.0,0025*58  04/19/22 14:30:54.439
$GNGGA,193053.00,3517.79327806,N,11121.57803952,W,4,18,0.7,1842.008,M,-23.838,M,1.0,0025*55  04/19/22 14:30:55.431
$GNGGA,193054.00,3517.79327812,N,11121.57803876,W,4,18,0.7,1842.007,M,-23.838,M,1.0,0025*5F  04/19/22 14:30:56.423
$GNGGA,193055.00,3517.79327981,N,11121.57803901,W,4,18,0.7,1842.001,M,-23.838,M,1.0,0025*52  04/19/22 14:30:57.431
$GNGGA,193056.00,3517.79327971,N,11121.57803931,W,4,18,0.7,1842.009,M,-23.838,M,1.0,0025*55  04/19/22 14:30:58.423
$GNGGA,193057.00,3517.79327958,N,11121.57803947,W,4,18,0.7,1842.009,M,-23.838,M,1.0,0025*5E  04/19/22 14:30:59.431
$GNGGA,193058.00,3517.79327979,N,11121.57804262,W,4,18,0.7,1842.010,M,-23.838,M,1.0,0025*51  04/19/22 14:31:00.423
$GNGGA,193059.00,3517.79327835,N,11121.57804034,W,4,18,0.7,1842.010,M,-23.838,M,1.0,0025*58  04/19/22 14:31:01.431
$GNGGA,193100.00,3517.79327797,N,11121.57803939,W,4,18,0.7,1842.013,M,-23.838,M,1.0,0025*52  04/19/22 14:31:02.422
$GNGGA,193101.00,3517.79327847,N,11121.57803984,W,4,18,0.7,1842.010,M,-23.838,M,1.0,0025*54  04/19/22 14:31:03.430
$GNGGA,193102.00,3517.79327985,N,11121.57803848,W,4,18,0.7,1842.010,M,-23.838,M,1.0,0025*59  04/19/22 14:31:04.438
$GNGGA,193103.00,3517.79327811,N,11121.57803956,W,4,18,0.7,1842.015,M,-23.838,M,1.0,0025*5F  04/19/22 14:31:05.430
$GNGGA,193104.00,3517.79327969,N,11121.57804094,W,4,18,0.7,1842.011,M,-23.838,M,1.0,0025*52  04/19/22 14:31:06.422
$GNGGA,193105.00,3517.79327871,N,11121.57804175,W,4,18,0.7,1842.008,M,-23.838,M,1.0,0025*5D  04/19/22 14:31:07.429
$GNGGA,193106.00,3517.79327891,N,11121.57803972,W,4,18,0.7,1842.010,M,-23.838,M,1.0,0025*51  04/19/22 14:31:08.422
$GNGGA,193107.00,3517.79327922,N,11121.57804033,W,4,18,0.7,1842.010,M,-23.838,M,1.0,0025*52  04/19/22 14:31:09.429
$GNGGA,193108.00,3517.79327829,N,11121.57803933,W,4,18,0.7,1842.014,M,-23.838,M,1.0,0025*5D  04/19/22 14:31:10.422
$GNGGA,193109.00,3517.79327977,N,11121.57803896,W,4,18,0.7,1842.012,M,-23.838,M,1.0,0025*5E  04/19/22 14:31:11.429
$GNGGA,193110.00,3517.79327917,N,11121.57803755,W,4,18,0.7,1842.006,M,-23.838,M,1.0,0025*55  04/19/22 14:31:12.421
$GNGGA,193111.00,3517.79327956,N,11121.57803968,W,4,18,0.7,1842.013,M,-23.838,M,1.0,0025*55  04/19/22 14:31:13.429
$GNGGA,193112.00,3517.79327870,N,11121.57803720,W,4,18,0.7,1842.013,M,-23.838,M,1.0,0025*51  04/19/22 14:31:14.436
$GNGGA,193113.00,3517.79327799,N,11121.57803899,W,4,18,0.7,1842.012,M,-23.838,M,1.0,0025*54  04/19/22 14:31:15.429
$GNGGA,193114.00,3517.79327767,N,11121.57803953,W,4,18,0.7,1842.015,M,-23.838,M,1.0,0025*52  04/19/22 14:31:16.420
$GNGGA,193115.00,3517.79327942,N,11121.57803855,W,4,18,0.7,1842.014,M,-23.838,M,1.0,0025*5C  04/19/22 14:31:17.429
$GNGGA,193116.00,3517.79327908,N,11121.57803894,W,4,18,0.7,1842.016,M,-23.838,M,1.0,0025*5E  04/19/22 14:31:18.420
$GNGGA,193117.00,3517.79327909,N,11121.57803839,W,4,18,0.7,1842.010,M,-23.838,M,1.0,0025*5F  04/19/22 14:31:19.428
$GNGGA,193118.00,3517.79327848,N,11121.57804054,W,4,18,0.7,1842.010,M,-23.838,M,1.0,0025*50  04/19/22 14:31:20.420
$GNGGA,193119.00,3517.79327867,N,11121.57803998,W,4,18,0.7,1842.013,M,-23.838,M,1.0,0025*51  04/19/22 14:31:21.428
$GNGGA,193120.00,3517.79327748,N,11121.57803994,W,4,18,0.7,1842.010,M,-23.838,M,1.0,0025*56  04/19/22 14:31:22.420
$GNGGA,193121.00,3517.79327797,N,11121.57804110,W,4,18,0.7,1842.002,M,-23.838,M,1.0,0025*55  04/19/22 14:31:23.428
$GNGGA,193122.00,3517.79327815,N,11121.57803889,W,4,18,0.7,1842.006,M,-23.838,M,1.0,0025*59  04/19/22 14:31:24.435
$GNGGA,193123.00,3517.79327913,N,11121.57804090,W,4,18,0.7,1842.005,M,-23.838,M,1.0,0025*5B  04/19/22 14:31:25.428
$GNGGA,193124.00,3517.79327705,N,11121.57803995,W,4,18,0.7,1842.012,M,-23.838,M,1.0,0025*58  04/19/22 14:31:26.435
$GNGGA,193125.00,3517.79327913,N,11121.57804074,W,4,18,0.7,1842.011,M,-23.838,M,1.0,0025*52  04/19/22 14:31:27.427
$GNGGA,193126.00,3517.79327857,N,11121.57804085,W,4,18,0.7,1842.019,M,-23.838,M,1.0,0025*56  04/19/22 14:31:28.435
$GNGGA,193127.00,3517.79327956,N,11121.57804007,W,4,18,0.7,1842.010,M,-23.838,M,1.0,0025*54  04/19/22 14:31:29.427
$GNGGA,193128.00,3517.79327903,N,11121.57804051,W,4,18,0.7,1842.005,M,-23.838,M,1.0,0025*5C  04/19/22 14:31:30.434
$GNGGA,193129.00,3517.79327984,N,11121.57803891,W,4,18,0.7,1842.008,M,-23.838,M,1.0,0025*5C  04/19/22 14:31:31.427
$GNGGA,193130.00,3517.79327932,N,11121.57803919,W,4,18,0.7,1842.013,M,-23.838,M,1.0,0025*52  04/19/22 14:31:32.434
$GNGGA,193131.00,3517.79327897,N,11121.57804040,W,4,18,0.7,1842.006,M,-23.838,M,1.0,0025*5B  04/19/22 14:31:33.426
$GNGGA,193132.00,3517.79327981,N,11121.57803996,W,4,18,0.7,1842.008,M,-23.838,M,1.0,0025*55  04/19/22 14:31:34.434
$GNGGA,193133.00,3517.79327827,N,11121.57803923,W,4,18,0.7,1842.011,M,-23.838,M,1.0,0025*5F  04/19/22 14:31:35.426
$GNGGA,193134.00,3517.79327800,N,11121.57804000,W,4,18,0.7,1842.013,M,-23.838,M,1.0,0025*50  04/19/22 14:31:36.434
$GNGGA,193135.00,3517.79327867,N,11121.57804025,W,4,18,0.7,1842.013,M,-23.838,M,1.0,0025*57  04/19/22 14:31:37.425
$GNGGA,193136.00,3517.79328023,N,11121.57804030,W,4,18,0.7,1842.005,M,-23.838,M,1.0,0025*50  04/19/22 14:31:38.433
$GNGGA,193137.00,3517.79327884,N,11121.57803663,W,4,18,0.7,1842.015,M,-23.838,M,1.0,0025*5D  04/19/22 14:31:39.426
$GNGGA,193138.00,3517.79327869,N,11121.57803969,W,4,18,0.7,1842.009,M,-23.838,M,1.0,0025*59  04/19/22 14:31:40.433
$GNGGA,193139.00,3517.79327920,N,11121.57803777,W,4,18,0.7,1842.011,M,-23.838,M,1.0,0025*5C  04/19/22 14:31:41.425
$GNGGA,193224.00,3517.79327803,N,11121.57804037,W,4,18,0.7,1842.014,M,-23.838,M,1.0,0025*52  04/19/22 14:32:26.428
$GNGGA,193225.00,3517.79327931,N,11121.57804073,W,4,18,0.7,1842.012,M,-23.838,M,1.0,0025*55  04/19/22 14:32:27.435
$GNGGA,193226.00,3517.79327923,N,11121.57803914,W,4,18,0.7,1842.009,M,-23.838,M,1.0,0025*50  04/19/22 14:32:28.427
$GNGGA,193227.00,3517.79327889,N,11121.57803951,W,4,18,0.7,1842.011,M,-23.838,M,1.0,0025*58  04/19/22 14:32:29.435
$GNGGA,193228.00,3517.79327945,N,11121.57803811,W,4,18,0.7,1842.007,M,-23.838,M,1.0,0025*54  04/19/22 14:32:30.427
$GNGGA,193229.00,3517.79327939,N,11121.57803951,W,4,18,0.7,1842.012,M,-23.838,M,1.0,0025*5F  04/19/22 14:32:31.435
$GNGGA,193230.00,3517.79327913,N,11121.57803937,W,4,18,0.7,1842.013,M,-23.838,M,1.0,0025*5E  04/19/22 14:32:32.426
$GNGGA,193231.00,3517.79327942,N,11121.57803923,W,4,18,0.7,1842.020,M,-23.838,M,1.0,0025*5E  04/19/22 14:32:33.435
$GNGGA,193232.00,3517.79327866,N,11121.57803902,W,4,18,0.7,1842.008,M,-23.838,M,1.0,0025*53  04/19/22 14:32:34.426
$GNGGA,193233.00,3517.79327855,N,11121.57803887,W,4,18,0.7,1842.015,M,-23.838,M,1.0,0025*52  04/19/22 14:32:35.434
$GNGGA,193234.00,3517.79327921,N,11121.57803949,W,4,18,0.7,1842.010,M,-23.838,M,1.0,0025*51  04/19/22 14:32:36.426
$GNGGA,193235.00,3517.79327872,N,11121.57803923,W,4,18,0.7,1842.012,M,-23.838,M,1.0,0025*59  04/19/22 14:32:37.434
$GNGGA,193236.00,3517.79327877,N,11121.57803964,W,4,18,0.7,1842.015,M,-23.838,M,1.0,0025*5B  04/19/22 14:32:38.426
$GNGGA,193237.00,3517.79327863,N,11121.57804047,W,4,18,0.7,1842.008,M,-23.838,M,1.0,0025*5C  04/19/22 14:32:39.433
$GNGGA,193238.00,3517.79327781,N,11121.57803765,W,4,18,0.7,1842.009,M,-23.838,M,1.0,0025*51  04/19/22 14:32:40.425
$GNGGA,193239.00,3517.79327878,N,11121.57803680,W,4,18,0.7,1842.010,M,-23.838,M,1.0,0025*5B  04/19/22 14:32:41.434
$GNGGA,193240.00,3517.79327938,N,11121.57803896,W,4,18,0.7,1842.005,M,-23.838,M,1.0,0025*5D  04/19/22 14:32:42.426
$GNGGA,193241.00,3517.79327834,N,11121.57803918,W,4,18,0.7,1842.006,M,-23.838,M,1.0,0025*55  04/19/22 14:32:43.433
$GNGGA,193242.00,3517.79327967,N,11121.57803834,W,4,18,0.7,1842.008,M,-23.838,M,1.0,0025*50  04/19/22 14:32:44.440
$GNGGA,193243.00,3517.79327896,N,11121.57803908,W,4,18,0.7,1842.013,M,-23.838,M,1.0,0025*5A  04/19/22 14:32:45.432
$GNGGA,193244.00,3517.79328056,N,11121.57803895,W,4,18,0.7,1842.016,M,-23.838,M,1.0,0025*56  04/19/22 14:32:46.425
$GNGGA,193245.00,3517.79327991,N,11121.57803894,W,4,18,0.7,1842.015,M,-23.838,M,1.0,0025*58  04/19/22 14:32:47.432
$GNGGA,193246.00,3517.79327920,N,11121.57803828,W,4,18,0.7,1842.011,M,-23.838,M,1.0,0025*52  04/19/22 14:32:48.424
$GNGGA,193247.00,3517.79327927,N,11121.57803774,W,4,18,0.7,1842.012,M,-23.838,M,1.0,0025*51  04/19/22 14:32:49.432
$GNGGA,193248.00,3517.79327934,N,11121.57803829,W,4,18,0.7,1842.008,M,-23.838,M,1.0,0025*50  04/19/22 14:32:50.424
$GNGGA,193249.00,3517.79327932,N,11121.57803843,W,4,18,0.7,1842.015,M,-23.838,M,1.0,0025*57  04/19/22 14:32:51.432
$GNGGA,193250.00,3517.79327894,N,11121.57803857,W,4,18,0.7,1842.012,M,-23.838,M,1.0,0025*50  04/19/22 14:32:52.424
$GNGGA,193251.00,3517.79327946,N,11121.57804008,W,4,18,0.7,1842.015,M,-23.838,M,1.0,0025*5D  04/19/22 14:32:53.432
$GNGGA,193252.00,3517.79327904,N,11121.57803961,W,4,18,0.7,1842.009,M,-23.838,M,1.0,0025*54  04/19/22 14:32:54.440
$GNGGA,193253.00,3517.79327851,N,11121.57803918,W,4,18,0.7,1842.015,M,-23.838,M,1.0,0025*57  04/19/22 14:32:55.432
$GNGGA,193254.00,3517.79328037,N,11121.57803753,W,4,18,0.7,1842.011,M,-23.838,M,1.0,0025*52  04/19/22 14:32:56.424
$GNGGA,193255.00,3517.79328034,N,11121.57803692,W,4,18,0.7,1842.017,M,-23.838,M,1.0,0025*5A  04/19/22 14:32:57.431
$GNGGA,193256.00,3517.79328013,N,11121.57803929,W,4,18,0.7,1842.012,M,-23.838,M,1.0,0025*56  04/19/22 14:32:58.423
$GNGGA,193257.00,3517.79327879,N,11121.57803834,W,4,18,0.7,1842.012,M,-23.838,M,1.0,0025*51  04/19/22 14:32:59.431
$GNGGA,193258.00,3517.79328008,N,11121.57803734,W,4,18,0.7,1842.010,M,-23.838,M,1.0,0025*52  04/19/22 14:33:00.423
$GNGGA,193259.00,3517.79327807,N,11121.57803845,W,4,18,0.7,1842.012,M,-23.838,M,1.0,0025*50  04/19/22 14:33:01.431
$GNGGA,193300.00,3517.79327991,N,11121.57803734,W,4,18,0.7,1842.003,M,-23.838,M,1.0,0025*5A  04/19/22 14:33:02.423
$GNGGA,193301.00,3517.79327997,N,11121.57803801,W,4,18,0.7,1842.012,M,-23.838,M,1.0,0025*54  04/19/22 14:33:03.431
$GNGGA,193302.00,3517.79327886,N,11121.57803907,W,4,18,0.7,1842.011,M,-23.838,M,1.0,0025*52  04/19/22 14:33:04.438
$GNGGA,193303.00,3517.79327909,N,11121.57803842,W,4,17,0.7,1842.009,M,-23.838,M,1.0,0025*53  04/19/22 14:33:05.431
$GNGGA,193304.00,3517.79327985,N,11121.57803811,W,4,17,0.7,1842.013,M,-23.838,M,1.0,0025*5D  04/19/22 14:33:06.422
$GNGGA,193305.00,3517.79327898,N,11121.57803787,W,4,17,0.7,1842.011,M,-23.838,M,1.0,0025*53  04/19/22 14:33:07.430
$GNGGA,193306.00,3517.79327911,N,11121.57803901,W,4,17,0.7,1842.011,M,-23.838,M,1.0,0025*50  04/19/22 14:33:08.422
$GNGGA,193307.00,3517.79327896,N,11121.57803927,W,4,17,0.7,1842.011,M,-23.838,M,1.0,0025*5B  04/19/22 14:33:09.430
$GNGGA,193308.00,3517.79327761,N,11121.57803935,W,4,17,0.7,1842.009,M,-23.838,M,1.0,0025*59  04/19/22 14:33:10.421
$GNGGA,193309.00,3517.79327881,N,11121.57803863,W,4,17,0.7,1842.009,M,-23.838,M,1.0,0025*5B  04/19/22 14:33:11.430
$GNGGA,193310.00,3517.79328004,N,11121.57803886,W,4,17,0.7,1842.012,M,-23.838,M,1.0,0025*58  04/19/22 14:33:12.422
$GNGGA,193311.00,3517.79327944,N,11121.57803973,W,4,17,0.7,1842.014,M,-23.838,M,1.0,0025*56  04/19/22 14:33:13.429
$GNGGA,193312.00,3517.79327940,N,11121.57803835,W,4,17,0.7,1842.008,M,-23.838,M,1.0,0025*5F  04/19/22 14:33:14.437
$GNGGA,193313.00,3517.79327937,N,11121.57803702,W,4,18,0.7,1842.013,M,-23.838,M,1.0,0025*50  04/19/22 14:33:15.429
$GNGGA,193314.00,3517.79327991,N,11121.57803868,W,4,18,0.7,1842.007,M,-23.838,M,1.0,0025*5D  04/19/22 14:33:16.421
$GNGGA,193315.00,3517.79327876,N,11121.57803832,W,4,18,0.7,1842.012,M,-23.838,M,1.0,0025*5F  04/19/22 14:33:17.429
$GNGGA,193316.00,3517.79328075,N,11121.57803628,W,4,18,0.7,1842.011,M,-23.838,M,1.0,0025*5E  04/19/22 14:33:18.421
$GNGGA,193317.00,3517.79327988,N,11121.57803948,W,4,17,0.7,1842.008,M,-23.838,M,1.0,0025*55  04/19/22 14:33:19.429
$GNGGA,193318.00,3517.79327905,N,11121.57803662,W,4,17,0.7,1842.003,M,-23.838,M,1.0,0025*53  04/19/22 14:33:20.420
$GNGGA,193319.00,3517.79328050,N,11121.57803766,W,4,17,0.7,1842.015,M,-23.838,M,1.0,0025*56  04/19/22 14:33:21.428
$GNGGA,193320.00,3517.79327959,N,11121.57804014,W,4,17,0.7,1842.009,M,-23.838,M,1.0,0025*5B  04/19/22 14:33:22.420
$GNGGA,193321.00,3517.79327692,N,11121.57803921,W,4,17,0.7,1842.013,M,-23.838,M,1.0,0025*51  04/19/22 14:33:23.428
$GNGGA,193322.00,3517.79327946,N,11121.57803912,W,4,17,0.7,1842.011,M,-23.838,M,1.0,0025*56  04/19/22 14:33:24.436
$GNGGA,193323.00,3517.79327928,N,11121.57803889,W,4,17,0.7,1842.013,M,-23.838,M,1.0,0025*5E  04/19/22 14:33:25.428
$GNGGA,193324.00,3517.79327931,N,11121.57803880,W,4,17,0.7,1842.011,M,-23.838,M,1.0,0025*5A  04/19/22 14:33:26.420
$GNGGA,193325.00,3517.79328064,N,11121.57803851,W,4,18,0.7,1842.009,M,-23.838,M,1.0,0025*57  04/19/22 14:33:27.427
$GNGGA,193326.00,3517.79328023,N,11121.57803916,W,4,17,0.7,1842.014,M,-23.838,M,1.0,0025*56  04/19/22 14:33:28.419
$GNGGA,193327.00,3517.79327948,N,11121.57803777,W,4,17,0.7,1842.019,M,-23.838,M,1.0,0025*58  04/19/22 14:33:29.427
$GNGGA,193328.00,3517.79327898,N,11121.57803885,W,4,17,0.7,1842.011,M,-23.838,M,1.0,0025*51  04/19/22 14:33:30.419
$GNGGA,193329.00,3517.79327863,N,11121.57803945,W,4,17,0.7,1842.015,M,-23.838,M,1.0,0025*5D  04/19/22 14:33:31.426
$GNGGA,193330.00,3517.79327934,N,11121.57803848,W,4,17,0.7,1842.014,M,-23.838,M,1.0,0025*5B  04/19/22 14:33:32.419
$GNGGA,193331.00,3517.79327964,N,11121.57803862,W,4,17,0.7,1842.016,M,-23.838,M,1.0,0025*55  04/19/22 14:33:33.427
$GNGGA,193332.00,3517.79328058,N,11121.57803854,W,4,17,0.7,1842.013,M,-23.838,M,1.0,0025*5F  04/19/22 14:33:34.435
$GNGGA,193333.00,3517.79327869,N,11121.57803796,W,4,17,0.7,1842.015,M,-23.838,M,1.0,0025*5C  04/19/22 14:33:35.426
$GNGGA,193334.00,3517.79328061,N,11121.57803737,W,4,17,0.7,1842.008,M,-23.838,M,1.0,0025*53  04/19/22 14:33:36.418
$GNGGA,193335.00,3517.79327869,N,11121.57803894,W,4,17,0.7,1842.011,M,-23.838,M,1.0,0025*53  04/19/22 14:33:37.426
$GNGGA,193336.00,3517.79328013,N,11121.57803797,W,4,17,0.7,1842.010,M,-23.838,M,1.0,0025*57  04/19/22 14:33:38.418
$GNGGA,193337.00,3517.79328051,N,11121.57803742,W,4,17,0.7,1842.016,M,-23.838,M,1.0,0025*5E  04/19/22 14:33:39.426
$GNGGA,193338.00,3517.79327962,N,11121.57803927,W,4,17,0.7,1842.015,M,-23.838,M,1.0,0025*59  04/19/22 14:33:40.434
$GNGGA,193339.00,3517.79328040,N,11121.57803951,W,4,17,0.7,1842.015,M,-23.838,M,1.0,0025*5F  04/19/22 14:33:41.426
$GNGGA,193340.00,3517.79327849,N,11121.57803869,W,4,17,0.7,1842.014,M,-23.838,M,1.0,0025*54  04/19/22 14:33:42.433
$GNGGA,193341.00,3517.79327858,N,11121.57803792,W,4,17,0.7,1842.011,M,-23.838,M,1.0,0025*5B  04/19/22 14:33:43.425
$GNGGA,193342.00,3517.79327939,N,11121.57803847,W,4,17,0.7,1842.009,M,-23.838,M,1.0,0025*50  04/19/22 14:33:44.433
$GNGGA,193343.00,3517.79328127,N,11121.57803752,W,4,17,0.7,1842.016,M,-23.838,M,1.0,0025*5C  04/19/22 14:33:45.425
$GNGGA,193344.00,3517.79327997,N,11121.57803773,W,4,17,0.7,1842.014,M,-23.838,M,1.0,0025*56  04/19/22 14:33:46.433
$GNGGA,193345.00,3517.79327812,N,11121.57803910,W,4,17,0.7,1842.015,M,-23.838,M,1.0,0025*51  04/19/22 14:33:47.425
$GNGGA,193346.00,3517.79328050,N,11121.57803802,W,4,17,0.7,1842.010,M,-23.838,M,1.0,0025*54  04/19/22 14:33:48.433
$GNGGA,193347.00,3517.79327940,N,11121.57803674,W,4,17,0.7,1842.012,M,-23.838,M,1.0,0025*5F  04/19/22 14:33:49.425
$GNGGA,193348.00,3517.79328013,N,11121.57803699,W,4,17,0.7,1842.014,M,-23.838,M,1.0,0025*55  04/19/22 14:33:50.432
$GNGGA,193349.00,3517.79328026,N,11121.57803775,W,4,17,0.7,1842.015,M,-23.838,M,1.0,0025*50  04/19/22 14:33:51.424
$GNGGA,193350.00,3517.79327971,N,11121.57803957,W,4,17,0.7,1842.013,M,-23.838,M,1.0,0025*54  04/19/22 14:33:52.432
$GNGGA,193351.00,3517.79328030,N,11121.57803768,W,4,17,0.7,1842.017,M,-23.838,M,1.0,0025*50  04/19/22 14:33:53.424
$GNGGA,193352.00,3517.79327906,N,11121.57803899,W,4,17,0.7,1842.014,M,-23.838,M,1.0,0025*52  04/19/22 14:33:54.432
$GNGGA,193353.00,3517.79328005,N,11121.57803692,W,4,17,0.7,1842.009,M,-23.838,M,1.0,0025*5F  04/19/22 14:33:55.424
$GNGGA,193354.00,3517.79328101,N,11121.57803883,W,4,17,0.7,1842.012,M,-23.838,M,1.0,0025*59  04/19/22 14:33:56.432
$GNGGA,193355.00,3517.79328083,N,11121.57803843,W,4,17,0.7,1842.016,M,-23.838,M,1.0,0025*5B  04/19/22 14:33:57.424
$GNGGA,193356.00,3517.79327997,N,11121.57803775,W,4,17,0.7,1842.011,M,-23.838,M,1.0,0025*56  04/19/22 14:33:58.431
$GNGGA,193357.00,3517.79327960,N,11121.57803845,W,4,17,0.7,1842.015,M,-23.838,M,1.0,0025*57  04/19/22 14:33:59.423
$GNGGA,193358.00,3517.79328042,N,11121.57803726,W,4,17,0.7,1842.010,M,-23.838,M,1.0,0025*51  04/19/22 14:34:00.431
$GNGGA,193359.00,3517.79327929,N,11121.57803822,W,4,17,0.7,1842.017,M,-23.838,M,1.0,0025*57  04/19/22 14:34:01.423
$GNGGA,193400.00,3517.79327963,N,11121.57803976,W,4,17,0.7,1842.011,M,-23.838,M,1.0,0025*54  04/19/22 14:34:02.431
$GNGGA,193401.00,3517.79328052,N,11121.57803994,W,4,17,0.7,1842.014,M,-23.838,M,1.0,0025*58  04/19/22 14:34:03.423
$GNGGA,193402.00,3517.79328092,N,11121.57803658,W,4,17,0.7,1842.013,M,-23.838,M,1.0,0025*5F  04/19/22 14:34:04.431
$GNGGA,193403.00,3517.79328069,N,11121.57803750,W,4,17,0.7,1842.012,M,-23.838,M,1.0,0025*52  04/19/22 14:34:05.422
$GNGGA,193404.00,3517.79328017,N,11121.57804003,W,4,17,0.7,1842.014,M,-23.838,M,1.0,0025*5C  04/19/22 14:34:06.430
$GNGGA,193405.00,3517.79327842,N,11121.57803909,W,4,17,0.7,1842.011,M,-23.838,M,1.0,0025*5B  04/19/22 14:34:07.422
$GNGGA,193406.00,3517.79328004,N,11121.57803893,W,4,17,0.7,1842.017,M,-23.838,M,1.0,0025*59  04/19/22 14:34:08.430
$GNGGA,193407.00,3517.79328082,N,11121.57803824,W,4,17,0.7,1842.018,M,-23.838,M,1.0,0025*55  04/19/22 14:34:09.422
$GNGGA,193408.00,3517.79328036,N,11121.57803827,W,4,17,0.7,1842.015,M,-23.838,M,1.0,0025*5B  04/19/22 14:34:10.430
$GNGGA,193409.00,3517.79327829,N,11121.57803731,W,4,17,0.7,1842.018,M,-23.838,M,1.0,0025*56  04/19/22 14:34:11.421
$GNGGA,193410.00,3517.79327932,N,11121.57803897,W,4,17,0.7,1842.015,M,-23.838,M,1.0,0025*5B  04/19/22 14:34:12.429
$GNGGA,193411.00,3517.79327933,N,11121.57803705,W,4,17,0.7,1842.016,M,-23.838,M,1.0,0025*5C  04/19/22 14:34:13.421
$GNGGA,193412.00,3517.79327984,N,11121.57803786,W,4,17,0.7,1842.018,M,-23.838,M,1.0,0025*56  04/19/22 14:34:14.429
$GNGGA,193413.00,3517.79328002,N,11121.57803746,W,4,17,0.7,1842.013,M,-23.838,M,1.0,0025*58  04/19/22 14:34:15.421
$GNGGA,193414.00,3517.79327973,N,11121.57803917,W,4,17,0.7,1842.015,M,-23.838,M,1.0,0025*53  04/19/22 14:34:16.428
$GNGGA,193415.00,3517.79327817,N,11121.57804024,W,4,17,0.7,1842.017,M,-23.838,M,1.0,0025*5D  04/19/22 14:34:17.420
$GNGGA,193416.00,3517.79328002,N,11121.57803999,W,4,17,0.7,1842.015,M,-23.838,M,1.0,0025*57  04/19/22 14:34:18.429
$GNGGA,193417.00,3517.79328116,N,11121.57803757,W,4,17,0.7,1842.011,M,-23.838,M,1.0,0025*5A  04/19/22 14:34:19.421
$GNGGA,193418.00,3517.79327948,N,11121.57803796,W,4,17,0.7,1842.018,M,-23.838,M,1.0,0025*5D  04/19/22 14:34:20.428
$GNGGA,193419.00,3517.79327941,N,11121.57803659,W,4,17,0.7,1842.014,M,-23.838,M,1.0,0025*5B  04/19/22 14:34:21.420
$GNGGA,193420.00,3517.79327933,N,11121.57803925,W,4,17,0.7,1842.012,M,-23.838,M,1.0,0025*56  04/19/22 14:34:22.428
$GNGGA,193421.00,3517.79327900,N,11121.57803747,W,4,17,0.7,1842.013,M,-23.838,M,1.0,0025*5C  04/19/22 14:34:23.420
$GNGGA,193422.00,3517.79327902,N,11121.57803861,W,4,17,0.7,1842.014,M,-23.838,M,1.0,0025*51  04/19/22 14:34:24.428
$GNGGA,193423.00,3517.79327973,N,11121.57803703,W,4,17,0.7,1842.017,M,-23.838,M,1.0,0025*5E  04/19/22 14:34:25.420
$GNGGA,193424.00,3517.79328073,N,11121.57803589,W,4,17,0.7,1842.012,M,-23.838,M,1.0,0025*5A  04/19/22 14:34:26.428
$GNGGA,193425.00,3517.79327973,N,11121.57803905,W,4,17,0.7,1842.017,M,-23.838,M,1.0,0025*50  04/19/22 14:34:27.419
$GNGGA,193426.00,3517.79327915,N,11121.57803638,W,4,17,0.7,1842.018,M,-23.838,M,1.0,0025*5D  04/19/22 14:34:28.427
$GNGGA,193427.00,3517.79328061,N,11121.57803764,W,4,17,0.7,1842.012,M,-23.838,M,1.0,0025*5B  04/19/22 14:34:29.419
$GNGGA,193428.00,3517.79327891,N,11121.57803837,W,4,17,0.7,1842.016,M,-23.838,M,1.0,0025*51  04/19/22 14:34:30.427
$GNGGA,193429.00,3517.79328060,N,11121.57803926,W,4,17,0.7,1842.012,M,-23.838,M,1.0,0025*5C  04/19/22 14:34:31.418
$GNGGA,193430.00,3517.79328048,N,11121.57803942,W,4,17,0.7,1842.011,M,-23.838,M,1.0,0025*5F  04/19/22 14:34:32.426
$GNGGA,193431.00,3517.79327813,N,11121.57804021,W,4,17,0.7,1842.012,M,-23.838,M,1.0,0025*5F  04/19/22 14:34:33.418
$GNGGA,193432.00,3517.79327917,N,11121.57803874,W,4,17,0.7,1842.018,M,-23.838,M,1.0,0025*5C  04/19/22 14:34:34.427
$GNGGA,193433.00,3517.79327840,N,11121.57803858,W,4,17,0.7,1842.010,M,-23.838,M,1.0,0025*58  04/19/22 14:34:35.418
$GNGGA,193434.00,3517.79327900,N,11121.57803763,W,4,17,0.7,1842.016,M,-23.838,M,1.0,0025*5B  04/19/22 14:34:36.427
$GNGGA,193435.00,3517.79328052,N,11121.57803774,W,4,17,0.7,1842.010,M,-23.838,M,1.0,0025*5B  04/19/22 14:34:37.418
$GNGGA,193436.00,3517.79328041,N,11121.57803801,W,4,17,0.7,1842.016,M,-23.838,M,1.0,0025*51  04/19/22 14:34:38.426
$GNGGA,193437.00,3517.79328084,N,11121.57803850,W,4,17,0.7,1842.013,M,-23.838,M,1.0,0025*58  04/19/22 14:34:39.418
$GNGGA,193438.00,3517.79328077,N,11121.57803864,W,4,17,0.7,1842.018,M,-23.838,M,1.0,0025*57  04/19/22 14:34:40.426
$GNGGA,193439.00,3517.79328066,N,11121.57803767,W,4,17,0.7,1842.014,M,-23.838,M,1.0,0025*56  04/19/22 14:34:41.434
$GNGGA,193440.00,3517.79327972,N,11121.57803722,W,4,17,0.7,1842.015,M,-23.838,M,1.0,0025*5B  04/19/22 14:34:42.426
$GNGGA,193441.00,3517.79327920,N,11121.57803887,W,4,17,0.7,1842.016,M,-23.838,M,1.0,0025*5E  04/19/22 14:34:43.434
$GNGGA,193442.00,3517.79328069,N,11121.57803942,W,4,17,0.7,1842.013,M,-23.838,M,1.0,0025*5B  04/19/22 14:34:44.425
$GNGGA,193443.00,3517.79327936,N,11121.57803767,W,4,17,0.7,1842.010,M,-23.838,M,1.0,0025*5C  04/19/22 14:34:45.433
$GNGGA,193444.00,3517.79327871,N,11121.57803985,W,4,17,0.7,1842.017,M,-23.838,M,1.0,0025*5C  04/19/22 14:34:46.425
$GNGGA,193445.00,3517.79328064,N,11121.57803762,W,4,17,0.7,1842.014,M,-23.838,M,1.0,0025*5A  04/19/22 14:34:47.433
$GNGGA,193446.00,3517.79327940,N,11121.57803859,W,4,17,0.7,1842.018,M,-23.838,M,1.0,0025*52  04/19/22 14:34:48.425
$GNGGA,193447.00,3517.79327912,N,11121.57803884,W,4,17,0.7,1842.015,M,-23.838,M,1.0,0025*59  04/19/22 14:34:49.432
$GNGGA,193448.00,3517.79327999,N,11121.57803834,W,4,17,0.7,1842.016,M,-23.838,M,1.0,0025*5D  04/19/22 14:34:50.425
$GNGGA,193449.00,3517.79327961,N,11121.57803785,W,4,17,0.7,1842.016,M,-23.838,M,1.0,0025*5E  04/19/22 14:34:51.432
$GNGGA,193450.00,3517.79328004,N,11121.57803841,W,4,17,0.7,1842.014,M,-23.838,M,1.0,0025*56  04/19/22 14:34:52.424
$GNGGA,193451.00,3517.79327956,N,11121.57803850,W,4,17,0.7,1842.014,M,-23.838,M,1.0,0025*56  04/19/22 14:34:53.432
$GNGGA,193452.00,3517.79327972,N,11121.57803709,W,4,17,0.7,1842.020,M,-23.838,M,1.0,0025*57  04/19/22 14:34:54.424
$GNGGA,193453.00,3517.79328094,N,11121.57803699,W,4,17,0.7,1842.015,M,-23.838,M,1.0,0025*56  04/19/22 14:34:55.431
$GNGGA,193454.00,3517.79327953,N,11121.57803770,W,4,17,0.7,1842.014,M,-23.838,M,1.0,0025*5B  04/19/22 14:34:56.423
$GNGGA,193455.00,3517.79327935,N,11121.57803800,W,4,17,0.7,1842.020,M,-23.838,M,1.0,0025*55  04/19/22 14:34:57.432
$GNGGA,193456.00,3517.79328017,N,11121.57803743,W,4,17,0.7,1842.018,M,-23.838,M,1.0,0025*53  04/19/22 14:34:58.423
$GNGGA,193457.00,3517.79327901,N,11121.57803848,W,4,17,0.7,1842.011,M,-23.838,M,1.0,0025*5E  04/19/22 14:34:59.431
$GNGGA,193458.00,3517.79327940,N,11121.57803916,W,4,17,0.7,1842.021,M,-23.838,M,1.0,0025*5D  04/19/22 14:35:00.423
$GNGGA,193459.00,3517.79327871,N,11121.57803728,W,4,17,0.7,1842.017,M,-23.838,M,1.0,0025*59  04/19/22 14:35:01.431
$GNGGA,193500.00,3517.79327922,N,11121.57803718,W,4,17,0.7,1842.018,M,-23.838,M,1.0,0025*5F  04/19/22 14:35:02.423
$GNGGA,193501.00,3517.79328033,N,11121.57803816,W,4,17,0.7,1842.018,M,-23.838,M,1.0,0025*59  04/19/22 14:35:03.431
$GNGGA,193502.00,3517.79327955,N,11121.57803824,W,4,17,0.7,1842.013,M,-23.838,M,1.0,0025*56  04/19/22 14:35:04.439
$GNGGA,193503.00,3517.79327995,N,11121.57803922,W,4,17,0.7,1842.014,M,-23.838,M,1.0,0025*5B  04/19/22 14:35:05.431
$GNGGA,193504.00,3517.79328019,N,11121.57803818,W,4,17,0.7,1842.009,M,-23.838,M,1.0,0025*5A  04/19/22 14:35:06.422
$GNGGA,193505.00,3517.79328048,N,11121.57803775,W,4,17,0.7,1842.017,M,-23.838,M,1.0,0025*54  04/19/22 14:35:07.430
$GNGGA,193506.00,3517.79327957,N,11121.57803864,W,4,17,0.7,1842.013,M,-23.838,M,1.0,0025*54  04/19/22 14:35:08.422
$GNGGA,193507.00,3517.79328051,N,11121.57803908,W,4,17,0.7,1842.012,M,-23.838,M,1.0,0025*5F  04/19/22 14:35:09.430
$GNGGA,193508.00,3517.79327982,N,11121.57803670,W,4,17,0.7,1842.016,M,-23.838,M,1.0,0025*5C  04/19/22 14:35:10.422
$GNGGA,193509.00,3517.79327894,N,11121.57803805,W,4,17,0.7,1842.019,M,-23.838,M,1.0,0025*58  04/19/22 14:35:11.429
$GNGGA,193510.00,3517.79328014,N,11121.57803749,W,4,17,0.7,1842.012,M,-23.838,M,1.0,0025*53  04/19/22 14:35:12.422
$GNGGA,193511.00,3517.79327971,N,11121.57803777,W,4,17,0.7,1842.016,M,-23.838,M,1.0,0025*5E  04/19/22 14:35:13.430
$GNGGA,193512.00,3517.79327893,N,11121.57803817,W,4,17,0.7,1842.018,M,-23.838,M,1.0,0025*57  04/19/22 14:35:14.437
$GNGGA,193513.00,3517.79327899,N,11121.57804059,W,4,17,0.7,1842.019,M,-23.838,M,1.0,0025*58  04/19/22 14:35:15.429
$GNGGA,193514.00,3517.79328034,N,11121.57803691,W,4,17,0.7,1842.014,M,-23.838,M,1.0,0025*57  04/19/22 14:35:16.421
$GNGGA,193515.00,3517.79327835,N,11121.57803899,W,4,17,0.7,1842.016,M,-23.838,M,1.0,0025*54  04/19/22 14:35:17.429
$GNGGA,193516.00,3517.79328027,N,11121.57803924,W,4,17,0.7,1842.012,M,-23.838,M,1.0,0025*50  04/19/22 14:35:18.421
$GNGGA,193517.00,3517.79327956,N,11121.57803776,W,4,17,0.7,1842.013,M,-23.838,M,1.0,0025*59  04/19/22 14:35:19.429
$GNGGA,193518.00,3517.79327862,N,11121.57803961,W,4,17,0.7,1842.010,M,-23.838,M,1.0,0025*5B  04/19/22 14:35:20.421
$GNGGA,193519.00,3517.79328013,N,11121.57803862,W,4,17,0.7,1842.014,M,-23.838,M,1.0,0025*5D  04/19/22 14:35:21.428
$GNGGA,193520.00,3517.79328014,N,11121.57803869,W,4,17,0.7,1842.014,M,-23.838,M,1.0,0025*5B  04/19/22 14:35:22.420
$GNGGA,193521.00,3517.79327904,N,11121.57803836,W,4,17,0.7,1842.010,M,-23.838,M,1.0,0025*53  04/19/22 14:35:23.428
$GNGGA,193522.00,3517.79328059,N,11121.57803790,W,4,17,0.7,1842.013,M,-23.838,M,1.0,0025*5E  04/19/22 14:35:24.436
$GNGGA,193523.00,3517.79328060,N,11121.57804009,W,4,17,0.7,1842.015,M,-23.838,M,1.0,0025*53  04/19/22 14:35:25.428
$GNGGA,193524.00,3517.79327983,N,11121.57803650,W,4,17,0.7,1842.012,M,-23.838,M,1.0,0025*55  04/19/22 14:35:26.420
$GNGGA,193525.00,3517.79327955,N,11121.57803743,W,4,17,0.7,1842.019,M,-23.838,M,1.0,0025*57  04/19/22 14:35:27.428
$GNGGA,193526.00,3517.79328058,N,11121.57803804,W,4,17,0.7,1842.010,M,-23.838,M,1.0,0025*5A  04/19/22 14:35:28.420
$GNGGA,193527.00,3517.79327981,N,11121.57803816,W,4,17,0.7,1842.014,M,-23.838,M,1.0,0025*5E  04/19/22 14:35:29.427
$GNGGA,193528.00,3517.79327959,N,11121.57803926,W,4,17,0.7,1842.015,M,-23.838,M,1.0,0025*57  04/19/22 14:35:30.419
$GNGGA,193529.00,3517.79327921,N,11121.57803871,W,4,17,0.7,1842.014,M,-23.838,M,1.0,0025*5B  04/19/22 14:35:31.427
$GNGGA,193530.00,3517.79327943,N,11121.57803856,W,4,17,0.7,1842.011,M,-23.838,M,1.0,0025*57  04/19/22 14:35:32.419
$GNGGA,193531.00,3517.79327935,N,11121.57803720,W,4,17,0.7,1842.016,M,-23.838,M,1.0,0025*5E  04/19/22 14:35:33.426
$GNGGA,193532.00,3517.79327985,N,11121.57803803,W,4,17,0.7,1842.010,M,-23.838,M,1.0,0025*5E  04/19/22 14:35:34.434
$GNGGA,193533.00,3517.79327997,N,11121.57803846,W,4,17,0.7,1842.016,M,-23.838,M,1.0,0025*5B  04/19/22 14:35:35.427
$GNGGA,193703.00,3517.79328082,N,11121.57803791,W,4,17,0.7,1842.008,M,-23.838,M,1.0,0025*52  04/19/22 14:37:05.431
$GNGGA,193704.00,3517.79327920,N,11121.57803803,W,4,17,0.7,1842.013,M,-23.838,M,1.0,0025*55  04/19/22 14:37:06.422
$GNGGA,193705.00,3517.79327915,N,11121.57803759,W,4,17,0.7,1842.008,M,-23.838,M,1.0,0025*58  04/19/22 14:37:07.430
$GNGGA,193706.00,3517.79327919,N,11121.57803879,W,4,17,0.7,1842.012,M,-23.838,M,1.0,0025*51  04/19/22 14:37:08.422
$GNGGA,193707.00,3517.79327941,N,11121.57803753,W,4,17,0.7,1842.010,M,-23.838,M,1.0,0025*58  04/19/22 14:37:09.430
$GNGGA,193708.00,3517.79327993,N,11121.57803614,W,4,17,0.7,1842.006,M,-23.838,M,1.0,0025*5D  04/19/22 14:37:10.422
$GNGGA,193709.00,3517.79327905,N,11121.57803868,W,4,17,0.7,1842.010,M,-23.838,M,1.0,0025*51  04/19/22 14:37:11.429
$GNGGA,193710.00,3517.79327960,N,11121.57803877,W,4,17,0.7,1842.014,M,-23.838,M,1.0,0025*50  04/19/22 14:37:12.422
$GNGGA,193711.00,3517.79327956,N,11121.57803835,W,4,17,0.7,1842.006,M,-23.838,M,1.0,0025*51  04/19/22 14:37:13.429
$GNGGA,193712.00,3517.79327901,N,11121.57803799,W,4,17,0.7,1842.009,M,-23.838,M,1.0,0025*56  04/19/22 14:37:14.437
$GNGGA,193713.00,3517.79327972,N,11121.57803851,W,4,17,0.7,1842.015,M,-23.838,M,1.0,0025*55  04/19/22 14:37:15.429
$GNGGA,193714.00,3517.79327994,N,11121.57804045,W,4,17,0.7,1842.010,M,-23.838,M,1.0,0025*55  04/19/22 14:37:16.421
$GNGGA,193715.00,3517.79327915,N,11121.57803974,W,4,17,0.7,1842.006,M,-23.838,M,1.0,0025*56  04/19/22 14:37:17.429
$GNGGA,193716.00,3517.79327907,N,11121.57803852,W,4,17,0.7,1842.011,M,-23.838,M,1.0,0025*55  04/19/22 14:37:18.421
$GNGGA,193717.00,3517.79327861,N,11121.57803849,W,4,17,0.7,1842.012,M,-23.838,M,1.0,0025*5C  04/19/22 14:37:19.429
$GNGGA,193718.00,3517.79327869,N,11121.57803731,W,4,17,0.7,1842.012,M,-23.838,M,1.0,0025*5B  04/19/22 14:37:20.421
$GNGGA,193719.00,3517.79327956,N,11121.57803905,W,4,17,0.7,1842.011,M,-23.838,M,1.0,0025*5D  04/19/22 14:37:21.429
$GNGGA,193720.00,3517.79327814,N,11121.57803778,W,4,17,0.7,1842.011,M,-23.838,M,1.0,0025*54  04/19/22 14:37:22.420
$GNGGA,193721.00,3517.79328004,N,11121.57803913,W,4,17,0.7,1842.012,M,-23.838,M,1.0,0025*53  04/19/22 14:37:23.428
$GNGGA,193722.00,3517.79327872,N,11121.57803756,W,4,17,0.7,1842.011,M,-23.838,M,1.0,0025*5A  04/19/22 14:37:24.436
$GNGGA,193723.00,3517.79327940,N,11121.57803905,W,4,17,0.7,1842.009,M,-23.838,M,1.0,0025*5A  04/19/22 14:37:25.427
$GNGGA,193724.00,3517.79328050,N,11121.57803670,W,4,17,0.7,1842.009,M,-23.838,M,1.0,0025*57  04/19/22 14:37:26.419
$GNGGA,193725.00,3517.79327904,N,11121.57803804,W,4,17,0.7,1842.010,M,-23.838,M,1.0,0025*54  04/19/22 14:37:27.428
$GNGGA,193726.00,3517.79328007,N,11121.57803744,W,4,17,0.7,1842.004,M,-23.838,M,1.0,0025*5C  04/19/22 14:37:28.420
$GNGGA,193727.00,3517.79327914,N,11121.57803742,W,4,17,0.7,1842.012,M,-23.838,M,1.0,0025*58  04/19/22 14:37:29.428
$GNGGA,193728.00,3517.79327931,N,11121.57803826,W,4,17,0.7,1842.011,M,-23.838,M,1.0,0025*5E  04/19/22 14:37:30.419
$GNGGA,193729.00,3517.79327825,N,11121.57803792,W,4,17,0.7,1842.012,M,-23.838,M,1.0,0025*58  04/19/22 14:37:31.427
$GNGGA,193730.00,3517.79327839,N,11121.57803859,W,4,17,0.7,1842.013,M,-23.838,M,1.0,0025*54  04/19/22 14:37:32.419
$GNGGA,193731.00,3517.79327850,N,11121.57803819,W,4,17,0.7,1842.006,M,-23.838,M,1.0,0025*5A  04/19/22 14:37:33.427
$GNGGA,193732.00,3517.79327814,N,11121.57803756,W,4,17,0.7,1842.006,M,-23.838,M,1.0,0025*5D  04/19/22 14:37:34.434
$GNGGA,193733.00,3517.79327992,N,11121.57803720,W,4,17,0.7,1842.006,M,-23.838,M,1.0,0025*52  04/19/22 14:37:35.426
$GNGGA,193734.00,3517.79328016,N,11121.57803942,W,4,17,0.7,1842.014,M,-23.838,M,1.0,0025*56  04/19/22 14:37:36.418
$GNGGA,193735.00,3517.79327916,N,11121.57803889,W,4,17,0.7,1842.013,M,-23.838,M,1.0,0025*50  04/19/22 14:37:37.426
$GNGGA,193736.00,3517.79327955,N,11121.57803837,W,4,17,0.7,1842.006,M,-23.838,M,1.0,0025*55  04/19/22 14:37:38.418
$GNGGA,193737.00,3517.79327695,N,11121.57803931,W,4,17,0.7,1842.012,M,-23.838,M,1.0,0025*55  04/19/22 14:37:39.426
$GNGGA,193738.00,3517.79327902,N,11121.57803863,W,4,17,0.7,1842.014,M,-23.838,M,1.0,0025*5B  04/19/22 14:37:40.418
$GNGGA,193739.00,3517.79327892,N,11121.57803805,W,4,17,0.7,1842.018,M,-23.838,M,1.0,0025*5E  04/19/22 14:37:41.426
$GNGGA,193740.00,3517.79327783,N,11121.57803898,W,4,17,0.7,1842.011,M,-23.838,M,1.0,0025*52  04/19/22 14:37:42.417
$GNGGA,193741.00,3517.79327890,N,11121.57803835,W,4,17,0.7,1842.006,M,-23.838,M,1.0,0025*5F  04/19/22 14:37:43.426
$GNGGA,193742.00,3517.79327759,N,11121.57803804,W,4,17,0.7,1842.012,M,-23.838,M,1.0,0025*51  04/19/22 14:37:44.433
$GNGGA,193743.00,3517.79327936,N,11121.57803823,W,4,17,0.7,1842.003,M,-23.838,M,1.0,0025*52  04/19/22 14:37:45.425
$GNGGA,193744.00,3517.79327958,N,11121.57803872,W,4,17,0.7,1842.006,M,-23.838,M,1.0,0025*5C  04/19/22 14:37:46.417
$GNGGA,193745.00,3517.79327874,N,11121.57803905,W,4,17,0.7,1842.010,M,-23.838,M,1.0,0025*54  04/19/22 14:37:47.425
$GNGGA,193746.00,3517.79327864,N,11121.57804001,W,4,17,0.7,1842.009,M,-23.838,M,1.0,0025*54  04/19/22 14:37:48.416
$GNGGA,193747.00,3517.79327730,N,11121.57803735,W,4,17,0.7,1842.007,M,-23.838,M,1.0,0025*52  04/19/22 14:37:49.424
$GNGGA,193748.00,3517.79327838,N,11121.57803830,W,4,17,0.7,1842.008,M,-23.838,M,1.0,0025*5F  04/19/22 14:37:50.417
$GNGGA,193749.00,3517.79327915,N,11121.57803723,W,4,17,0.7,1842.008,M,-23.838,M,1.0,0025*5D  04/19/22 14:37:51.424
$GNGGA,193750.00,3517.79327860,N,11121.57803769,W,4,17,0.7,1842.004,M,-23.838,M,1.0,0025*54  04/19/22 14:37:52.417
$GNGGA,193751.00,3517.79327910,N,11121.57803932,W,4,17,0.7,1842.007,M,-23.838,M,1.0,0025*50  04/19/22 14:37:53.424
$GNGGA,193752.00,3517.79327895,N,11121.57803869,W,4,17,0.7,1842.010,M,-23.838,M,1.0,0025*56  04/19/22 14:37:54.432
$GNGGA,193753.00,3517.79328013,N,11121.57803706,W,4,17,0.7,1842.014,M,-23.838,M,1.0,0025*5C  04/19/22 14:37:55.424
$GNGGA,193754.00,3517.79327906,N,11121.57803874,W,4,17,0.7,1842.006,M,-23.838,M,1.0,0025*50  04/19/22 14:37:56.432
$GNGGA,193755.00,3517.79327975,N,11121.57803896,W,4,17,0.7,1842.005,M,-23.838,M,1.0,0025*5A  04/19/22 14:37:57.423
$GNGGA,193756.00,3517.79327898,N,11121.57803882,W,4,17,0.7,1842.008,M,-23.838,M,1.0,0025*53  04/19/22 14:37:58.432
$GNGGA,193757.00,3517.79327692,N,11121.57803943,W,4,17,0.7,1842.003,M,-23.838,M,1.0,0025*51  04/19/22 14:37:59.423
$GNGGA,193758.00,3517.79327981,N,11121.57803767,W,4,17,0.7,1842.012,M,-23.838,M,1.0,0025*5B  04/19/22 14:38:00.431
$GNGGA,193759.00,3517.79327810,N,11121.57803990,W,4,17,0.7,1842.007,M,-23.838,M,1.0,0025*51  04/19/22 14:38:01.423
$GNGGA,193800.00,3517.79327903,N,11121.57803795,W,4,17,0.7,1842.005,M,-23.838,M,1.0,0025*58  04/19/22 14:38:02.431
$GNGGA,193801.00,3517.79327736,N,11121.57803839,W,4,17,0.7,1842.007,M,-23.838,M,1.0,0025*5A  04/19/22 14:38:03.423
$GNGGA,193802.00,3517.79327997,N,11121.57804029,W,4,17,0.7,1842.006,M,-23.838,M,1.0,0025*53  04/19/22 14:38:04.431
$GNGGA,193803.00,3517.79327978,N,11121.57804023,W,4,17,0.7,1842.001,M,-23.838,M,1.0,0025*5E  04/19/22 14:38:05.423
$GNGGA,193804.00,3517.79327780,N,11121.57804128,W,4,17,0.7,1842.012,M,-23.838,M,1.0,0025*58  04/19/22 14:38:06.431
$GNGGA,193805.00,3517.79327846,N,11121.57803787,W,4,17,0.7,1842.009,M,-23.838,M,1.0,0025*52  04/19/22 14:38:07.423
$GNGGA,193806.00,3517.79327932,N,11121.57804044,W,4,17,0.7,1842.008,M,-23.838,M,1.0,0025*5D  04/19/22 14:38:08.430
$GNGGA,193807.00,3517.79327787,N,11121.57803989,W,4,17,0.7,1842.008,M,-23.838,M,1.0,0025*53  04/19/22 14:38:09.422
$GNGGA,193808.00,3517.79327968,N,11121.57803764,W,4,17,0.7,1842.006,M,-23.838,M,1.0,0025*50  04/19/22 14:38:10.430
$GNGGA,193809.00,3517.79327596,N,11121.57804090,W,4,17,0.7,1842.008,M,-23.838,M,1.0,0025*59  04/19/22 14:38:11.422
$GNGGA,193810.00,3517.79327783,N,11121.57803994,W,4,17,0.7,1842.004,M,-23.838,M,1.0,0025*51  04/19/22 14:38:12.430
$GNGGA,193811.00,3517.79328042,N,11121.57803933,W,4,17,0.7,1842.004,M,-23.838,M,1.0,0025*58  04/19/22 14:38:13.422
$GNGGA,193812.00,3517.79327889,N,11121.57803903,W,4,17,0.7,1842.001,M,-23.838,M,1.0,0025*5D  04/19/22 14:38:14.430
$GNGGA,193813.00,3517.79328038,N,11121.57803917,W,4,17,0.7,1842.007,M,-23.838,M,1.0,0025*52  04/19/22 14:38:15.421
$GNGGA,193814.00,3517.79328018,N,11121.57803863,W,4,17,0.7,1842.006,M,-23.838,M,1.0,0025*54  04/19/22 14:38:16.429
$GNGGA,193815.00,3517.79327843,N,11121.57804089,W,4,17,0.7,1842.002,M,-23.838,M,1.0,0025*53  04/19/22 14:38:17.421
$GNGGA,193816.00,3517.79327893,N,11121.57803865,W,4,17,0.7,1842.008,M,-23.838,M,1.0,0025*5A  04/19/22 14:38:18.429
$GNGGA,193817.00,3517.79327833,N,11121.57803918,W,4,17,0.7,1842.007,M,-23.838,M,1.0,0025*55  04/19/22 14:38:19.420
$GNGGA,193818.00,3517.79327913,N,11121.57803756,W,4,17,0.7,1842.005,M,-23.838,M,1.0,0025*5F  04/19/22 14:38:20.429
$GNGGA,193819.00,3517.79327894,N,11121.57804016,W,4,17,0.7,1842.012,M,-23.838,M,1.0,0025*52  04/19/22 14:38:21.421
$GNGGA,193820.00,3517.79327764,N,11121.57803996,W,4,17,0.7,1842.008,M,-23.838,M,1.0,0025*55  04/19/22 14:38:22.429
$GNGGA,193821.00,3517.79327839,N,11121.57803996,W,4,17,0.7,1842.004,M,-23.838,M,1.0,0025*5F  04/19/22 14:38:23.420
$GNGGA,193822.00,3517.79327858,N,11121.57804042,W,4,17,0.7,1842.006,M,-23.838,M,1.0,0025*5E  04/19/22 14:38:24.428
$GNGGA,193823.00,3517.79327878,N,11121.57804031,W,4,17,0.7,1842.009,M,-23.838,M,1.0,0025*56  04/19/22 14:38:25.420
$GNGGA,193824.00,3517.79327919,N,11121.57803861,W,4,17,0.7,1842.002,M,-23.838,M,1.0,0025*56  04/19/22 14:38:26.428
$GNGGA,193825.00,3517.79327773,N,11121.57803764,W,4,17,0.7,1842.002,M,-23.838,M,1.0,0025*5F  04/19/22 14:38:27.420
$GNGGA,193826.00,3517.79327931,N,11121.57803878,W,4,17,0.7,1842.010,M,-23.838,M,1.0,0025*55  04/19/22 14:38:28.428
$GNGGA,193827.00,3517.79327769,N,11121.57803913,W,4,17,0.7,1842.001,M,-23.838,M,1.0,0025*5B  04/19/22 14:38:29.420
$GNGGA,193828.00,3517.79327840,N,11121.57803790,W,4,17,0.7,1842.008,M,-23.838,M,1.0,0025*5C  04/19/22 14:38:30.428
$GNGGA,193829.00,3517.79327785,N,11121.57803835,W,4,17,0.7,1842.010,M,-23.838,M,1.0,0025*52  04/19/22 14:38:31.419
$GNGGA,193830.00,3517.79327807,N,11121.57804042,W,4,17,0.7,1842.001,M,-23.838,M,1.0,0025*50  04/19/22 14:38:32.427
$GNGGA,193831.00,3517.79327910,N,11121.57803651,W,4,17,0.7,1842.013,M,-23.838,M,1.0,0025*56  04/19/22 14:38:33.419
$GNGGA,193832.00,3517.79327905,N,11121.57803914,W,4,17,0.7,1842.006,M,-23.838,M,1.0,0025*5B  04/19/22 14:38:34.427
$GNGGA,193833.00,3517.79327994,N,11121.57803809,W,4,17,0.7,1842.005,M,-23.838,M,1.0,0025*5C  04/19/22 14:38:35.419
$GNGGA,193834.00,3517.79327792,N,11121.57803953,W,4,17,0.7,1842.005,M,-23.838,M,1.0,0025*5D  04/19/22 14:38:36.427
$GNGGA,193835.00,3517.79327899,N,11121.57804055,W,4,17,0.7,1842.008,M,-23.838,M,1.0,0025*5D  04/19/22 14:38:37.418
$GNGGA,193836.00,3517.79327869,N,11121.57803934,W,4,17,0.7,1842.007,M,-23.838,M,1.0,0025*57  04/19/22 14:38:38.426
$GNGGA,193837.00,3517.79327955,N,11121.57803784,W,4,17,0.7,1842.006,M,-23.838,M,1.0,0025*5C  04/19/22 14:38:39.418
$GNGGA,193936.00,3517.79327857,N,11121.57803829,W,4,17,0.7,1842.010,M,-23.838,M,1.0,0025*50  04/19/22 14:39:38.419
$GNGGA,193937.00,3517.79327980,N,11121.57803865,W,4,17,0.7,1842.010,M,-23.838,M,1.0,0025*52  04/19/22 14:39:39.426
$GNGGA,193938.00,3517.79327712,N,11121.57803869,W,4,17,0.7,1842.014,M,-23.838,M,1.0,0025*50  04/19/22 14:39:40.418
$GNGGA,193939.00,3517.79327787,N,11121.57803823,W,4,17,0.7,1842.014,M,-23.838,M,1.0,0025*53  04/19/22 14:39:41.426
$GNGGA,193940.00,3517.79327911,N,11121.57803982,W,4,17,0.7,1842.008,M,-23.838,M,1.0,0025*5B  04/19/22 14:39:42.418
$GNGGA,193941.00,3517.79327854,N,11121.57803951,W,4,17,0.7,1842.001,M,-23.838,M,1.0,0025*5D  04/19/22 14:39:43.425
$GNGGA,193942.00,3517.79327948,N,11121.57803813,W,4,17,0.7,1842.009,M,-23.838,M,1.0,0025*5D  04/19/22 14:39:44.433
$GNGGA,193943.00,3517.79327867,N,11121.57803826,W,4,17,0.7,1842.012,M,-23.838,M,1.0,0025*5C  04/19/22 14:39:45.425
$GNGGA,193944.00,3517.79327850,N,11121.57803922,W,4,17,0.7,1842.009,M,-23.838,M,1.0,0025*50  04/19/22 14:39:46.417
$GNGGA,193945.00,3517.79327820,N,11121.57803924,W,4,17,0.7,1842.006,M,-23.838,M,1.0,0025*5F  04/19/22 14:39:47.425
$GNGGA,193946.00,3517.79327811,N,11121.57803795,W,4,17,0.7,1842.010,M,-23.838,M,1.0,0025*5D  04/19/22 14:39:48.417
$GNGGA,193947.00,3517.79327987,N,11121.57803939,W,4,17,0.7,1842.008,M,-23.838,M,1.0,0025*53  04/19/22 14:39:49.424
$GNGGA,193948.00,3517.79327993,N,11121.57803752,W,4,17,0.7,1842.013,M,-23.838,M,1.0,0025*50  04/19/22 14:39:50.417
$GNGGA,193949.00,3517.79327853,N,11121.57803954,W,4,17,0.7,1842.010,M,-23.838,M,1.0,0025*57  04/19/22 14:39:51.425
$GNGGA,193950.00,3517.79327831,N,11121.57804021,W,4,17,0.7,1842.010,M,-23.838,M,1.0,0025*57  04/19/22 14:39:52.416
$GNGGA,193951.00,3517.79327804,N,11121.57803857,W,4,17,0.7,1842.007,M,-23.838,M,1.0,0025*58  04/19/22 14:39:53.424
$GNGGA,193952.00,3517.79327915,N,11121.57803970,W,4,17,0.7,1842.004,M,-23.838,M,1.0,0025*5D  04/19/22 14:39:54.432
$GNGGA,193953.00,3517.79327905,N,11121.57803816,W,4,17,0.7,1842.011,M,-23.838,M,1.0,0025*58  04/19/22 14:39:55.424
$GNGGA,193954.00,3517.79327842,N,11121.57803805,W,4,17,0.7,1842.015,M,-23.838,M,1.0,0025*5B  04/19/22 14:39:56.416
$GNGGA,193955.00,3517.79327782,N,11121.57803960,W,4,17,0.7,1842.012,M,-23.838,M,1.0,0025*5C  04/19/22 14:39:57.424
$GNGGA,193956.00,3517.79327723,N,11121.57803766,W,4,17,0.7,1842.015,M,-23.838,M,1.0,0025*5B  04/19/22 14:39:58.416
$GNGGA,193957.00,3517.79327913,N,11121.57803763,W,4,17,0.7,1842.013,M,-23.838,M,1.0,0025*54  04/19/22 14:39:59.423
$GNGGA,193958.00,3517.79327667,N,11121.57803813,W,4,17,0.7,1842.014,M,-23.838,M,1.0,0025*58  04/19/22 14:40:00.415
$GNGGA,193959.00,3517.79327900,N,11121.57803784,W,4,17,0.7,1842.009,M,-23.838,M,1.0,0025*5A  04/19/22 14:40:01.423
$GNGGA,194000.00,3517.79327822,N,11121.57804000,W,4,17,0.7,1842.009,M,-23.838,M,1.0,0025*55  04/19/22 14:40:02.415
$GNGGA,194001.00,3517.79327918,N,11121.57803771,W,4,17,0.7,1842.011,M,-23.838,M,1.0,0025*53  04/19/22 14:40:03.423
$GNGGA,194002.00,3517.79327790,N,11121.57803672,W,4,17,0.7,1842.003,M,-23.838,M,1.0,0025*5F  04/19/22 14:40:04.430
$GNGGA,194003.00,3517.79327869,N,11121.57803735,W,4,17,0.7,1842.013,M,-23.838,M,1.0,0025*54  04/19/22 14:40:05.423
$GNGGA,194004.00,3517.79327963,N,11121.57803670,W,4,17,0.7,1842.010,M,-23.838,M,1.0,0025*5B  04/19/22 14:40:06.430
$GNGGA,194005.00,3517.79327603,N,11121.57803726,W,4,17,0.7,1842.005,M,-23.838,M,1.0,0025*55  04/19/22 14:40:07.422
$GNGGA,194006.00,3517.79327869,N,11121.57803708,W,4,17,0.7,1842.016,M,-23.838,M,1.0,0025*5A  04/19/22 14:40:08.430
$GNGGA,194007.00,3517.79327948,N,11121.57803649,W,4,17,0.7,1842.013,M,-23.838,M,1.0,0025*58  04/19/22 14:40:09.422
$GNGGA,194008.00,3517.79327852,N,11121.57803734,W,4,17,0.7,1842.006,M,-23.838,M,1.0,0025*52  04/19/22 14:40:10.430
$GNGGA,194009.00,3517.79327995,N,11121.57803719,W,4,17,0.7,1842.006,M,-23.838,M,1.0,0025*56  04/19/22 14:40:11.421
$GNGGA,194010.00,3517.79327910,N,11121.57803809,W,4,17,0.7,1842.012,M,-23.838,M,1.0,0025*58  04/19/22 14:40:12.430
$GNGGA,194011.00,3517.79328003,N,11121.57803774,W,4,17,0.7,1842.014,M,-23.838,M,1.0,0025*5E  04/19/22 14:40:13.421
$GNGGA,194012.00,3517.79327959,N,11121.57803961,W,4,17,0.7,1842.006,M,-23.838,M,1.0,0025*5D  04/19/22 14:40:14.430
$GNGGA,194013.00,3517.79327921,N,11121.57803617,W,4,17,0.7,1842.006,M,-23.838,M,1.0,0025*5D  04/19/22 14:40:15.421
$GNGGA,194014.00,3517.79328002,N,11121.57803717,W,4,17,0.7,1842.006,M,-23.838,M,1.0,0025*5C  04/19/22 14:40:16.429
$GNGGA,194015.00,3517.79327965,N,11121.57803946,W,4,17,0.7,1842.007,M,-23.838,M,1.0,0025*51  04/19/22 14:40:17.421
$GNGGA,194016.00,3517.79327932,N,11121.57803797,W,4,17,0.7,1842.007,M,-23.838,M,1.0,0025*52  04/19/22 14:40:18.429
$GNGGA,194017.00,3517.79327865,N,11121.57803780,W,4,17,0.7,1842.010,M,-23.838,M,1.0,0025*50  04/19/22 14:40:19.421
$GNGGA,194018.00,3517.79327949,N,11121.57803936,W,4,17,0.7,1842.010,M,-23.838,M,1.0,0025*53  04/19/22 14:40:20.429
$GNGGA,194019.00,3517.79327967,N,11121.57803878,W,4,17,0.7,1842.008,M,-23.838,M,1.0,0025*5C  04/19/22 14:40:21.421
$GNGGA,194020.00,3517.79327833,N,11121.57803848,W,4,17,0.7,1842.011,M,-23.838,M,1.0,0025*5D  04/19/22 14:40:22.429
$GNGGA,194021.00,3517.79327989,N,11121.57803747,W,4,17,0.7,1842.008,M,-23.838,M,1.0,0025*54  04/19/22 14:40:23.421
$GNGGA,194022.00,3517.79328024,N,11121.57803858,W,4,17,0.7,1842.004,M,-23.838,M,1.0,0025*5B  04/19/22 14:40:24.428
$GNGGA,194023.00,3517.79327988,N,11121.57803776,W,4,17,0.7,1842.011,M,-23.838,M,1.0,0025*5D  04/19/22 14:40:25.420
$GNGGA,194024.00,3517.79327867,N,11121.57803832,W,4,17,0.7,1842.006,M,-23.838,M,1.0,0025*53  04/19/22 14:40:26.428
$GNGGA,194025.00,3517.79327842,N,11121.57803906,W,4,17,0.7,1842.009,M,-23.838,M,1.0,0025*5C  04/19/22 14:40:27.420
$GNGGA,194026.00,3517.79327880,N,11121.57803759,W,4,17,0.7,1842.005,M,-23.838,M,1.0,0025*59  04/19/22 14:40:28.428
$GNGGA,194027.00,3517.79327851,N,11121.57803885,W,4,17,0.7,1842.007,M,-23.838,M,1.0,0025*58  04/19/22 14:40:29.420
$GNGGA,194028.00,3517.79327979,N,11121.57803832,W,4,17,0.7,1842.007,M,-23.838,M,1.0,0025*50  04/19/22 14:40:30.428
$GNGGA,194029.00,3517.79327985,N,11121.57803768,W,4,17,0.7,1842.007,M,-23.838,M,1.0,0025*52  04/19/22 14:40:31.419
$GNGGA,194030.00,3517.79327951,N,11121.57803936,W,4,17,0.7,1842.003,M,-23.838,M,1.0,0025*52  04/19/22 14:40:32.427
$GNGGA,194031.00,3517.79327796,N,11121.57803869,W,4,17,0.7,1842.008,M,-23.838,M,1.0,0025*56  04/19/22 14:40:33.419
$GNGGA,194032.00,3517.79327902,N,11121.57803837,W,4,17,0.7,1842.004,M,-23.838,M,1.0,0025*51  04/19/22 14:40:34.427
$GNGGA,194033.00,3517.79327937,N,11121.57803795,W,4,17,0.7,1842.005,M,-23.838,M,1.0,0025*50  04/19/22 14:40:35.419
$GNGGA,194034.00,3517.79327872,N,11121.57803824,W,4,17,0.7,1842.005,M,-23.838,M,1.0,0025*52  04/19/22 14:40:36.427
$GNGGA,194035.00,3517.79327899,N,11121.57803844,W,4,17,0.7,1842.007,M,-23.838,M,1.0,0025*52  04/19/22 14:40:37.419
$GNGGA,194036.00,3517.79327981,N,11121.57803775,W,4,17,0.7,1842.005,M,-23.838,M,1.0,0025*56  04/19/22 14:40:38.426
$GNGGA,194037.00,3517.79328007,N,11121.57803578,W,4,17,0.7,1842.009,M,-23.838,M,1.0,0025*5C  04/19/22 14:40:39.418
$GNGGA,194038.00,3517.79328038,N,11121.57803983,W,4,17,0.7,1842.009,M,-23.838,M,1.0,0025*57  04/19/22 14:40:40.426
$GNGGA,194039.00,3517.79327870,N,11121.57803891,W,4,17,0.7,1842.008,M,-23.838,M,1.0,0025*5E  04/19/22 14:40:41.418
$GNGGA,194040.00,3517.79327981,N,11121.57803890,W,4,17,0.7,1842.008,M,-23.838,M,1.0,0025*5E  04/19/22 14:40:42.426
$GNGGA,194041.00,3517.79327924,N,11121.57803944,W,4,17,0.7,1842.010,M,-23.838,M,1.0,0025*51  04/19/22 14:40:43.417
$GNGGA,194042.00,3517.79327867,N,11121.57803967,W,4,17,0.7,1842.007,M,-23.838,M,1.0,0025*53  04/19/22 14:40:44.425
$GNGGA,194043.00,3517.79327968,N,11121.57803779,W,4,17,0.7,1842.008,M,-23.838,M,1.0,0025*52  04/19/22 14:40:45.417
$GNGGA,194044.00,3517.79327932,N,11121.57803704,W,4,17,0.7,1842.003,M,-23.838,M,1.0,0025*5B  04/19/22 14:40:46.425
$GNGGA,194045.00,3517.79327951,N,11121.57803990,W,4,17,0.7,1842.006,M,-23.838,M,1.0,0025*59  04/19/22 14:40:47.417
$GNGGA,194046.00,3517.79327927,N,11121.57803799,W,4,17,0.7,1842.010,M,-23.838,M,1.0,0025*5B  04/19/22 14:40:48.425
$GNGGA,194047.00,3517.79327923,N,11121.57803869,W,4,17,0.7,1842.004,M,-23.838,M,1.0,0025*5B  04/19/22 14:40:49.417
$GNGGA,194048.00,3517.79327908,N,11121.57804001,W,4,17,0.7,1842.009,M,-23.838,M,1.0,0025*51  04/19/22 14:40:50.425
$GNGGA,194049.00,3517.79327926,N,11121.57803959,W,4,17,0.7,1842.009,M,-23.838,M,1.0,0025*5F  04/19/22 14:40:51.416
$GNGGA,194050.00,3517.79327942,N,11121.57804068,W,4,17,0.7,1842.011,M,-23.838,M,1.0,0025*50  04/19/22 14:40:52.425
$GNGGA,194051.00,3517.79328050,N,11121.57803751,W,4,17,0.7,1842.007,M,-23.838,M,1.0,0025*59  04/19/22 14:40:53.417
$GNGGA,194052.00,3517.79327830,N,11121.57803932,W,4,17,0.7,1842.003,M,-23.838,M,1.0,0025*54  04/19/22 14:40:54.424
$GNGGA,194053.00,3517.79327990,N,11121.57803925,W,4,17,0.7,1842.013,M,-23.838,M,1.0,0025*59  04/19/22 14:40:55.416
$GNGGA,194054.00,3517.79328086,N,11121.57804037,W,4,17,0.7,1842.008,M,-23.838,M,1.0,0025*58  04/19/22 14:40:56.424
$GNGGA,194055.00,3517.79327992,N,11121.57803802,W,4,17,0.7,1842.002,M,-23.838,M,1.0,0025*59  04/19/22 14:40:57.416
